[
    {
        "id": 2760144,
        "name": "Aalburg",
        "lon": 5.13156,
        "lat": 51.754822
    },
    {
        "id": 2760134,
        "name": "Aalsmeer",
        "lon": 4.75972,
        "lat": 52.259171
    },
    {
        "id": 2760123,
        "name": "Aalten",
        "lon": 6.58056,
        "lat": 51.924999
    },
    {
        "id": 6698718,
        "name": "Aarle-Rixtel",
        "lon": 5.63839,
        "lat": 51.509762
    },
    {
        "id": 2760055,
        "name": "Abtswoude",
        "lon": 4.35556,
        "lat": 51.979172
    },
    {
        "id": 2759961,
        "name": "Aduard",
        "lon": 6.45972,
        "lat": 53.256672
    },
    {
        "id": 7626528,
        "name": "agz installatietechniek",
        "lon": 4.81981,
        "lat": 52.64555
    },
    {
        "id": 2759922,
        "name": "Akkrum",
        "lon": 5.83087,
        "lat": 53.05024
    },
    {
        "id": 2759915,
        "name": "Alblasserdam",
        "lon": 4.66111,
        "lat": 51.865829
    },
    {
        "id": 2749669,
        "name": "Aldeboarn",
        "lon": 5.9,
        "lat": 53.049999
    },
    {
        "id": 2759899,
        "name": "Alkmaar",
        "lon": 4.74861,
        "lat": 52.631672
    },
    {
        "id": 2759887,
        "name": "Almelo",
        "lon": 6.6625,
        "lat": 52.35667
    },
    {
        "id": 2759884,
        "name": "Almen",
        "lon": 6.3,
        "lat": 52.158329
    },
    {
        "id": 2759880,
        "name": "Almere Haven",
        "lon": 5.21919,
        "lat": 52.335758
    },
    {
        "id": 2759879,
        "name": "Almere Stad",
        "lon": 5.21413,
        "lat": 52.370251
    },
    {
        "id": 2759878,
        "name": "Almkerk",
        "lon": 4.95972,
        "lat": 51.770828
    },
    {
        "id": 2759875,
        "name": "Alphen aan den Rijn",
        "lon": 4.65546,
        "lat": 52.129169
    },
    {
        "id": 2759828,
        "name": "Amerongen",
        "lon": 5.45972,
        "lat": 52.002499
    },
    {
        "id": 2759821,
        "name": "Amersfoort",
        "lon": 5.3875,
        "lat": 52.154999
    },
    {
        "id": 2759798,
        "name": "Amstelveen",
        "lon": 4.86389,
        "lat": 52.300831
    },
    {
        "id": 2759796,
        "name": "Amstenrade",
        "lon": 5.92361,
        "lat": 50.939171
    },
    {
        "id": 2759794,
        "name": "Amsterdam",
        "lon": 4.88969,
        "lat": 52.374031
    },
    {
        "id": 6544881,
        "name": "Amsterdam-Zuidoost",
        "lon": 4.97222,
        "lat": 52.307499
    },
    {
        "id": 2759781,
        "name": "Andelst",
        "lon": 5.72917,
        "lat": 51.908329
    },
    {
        "id": 2759757,
        "name": "Anjum",
        "lon": 6.12698,
        "lat": 53.374748
    },
    {
        "id": 2759746,
        "name": "Anloo",
        "lon": 6.70139,
        "lat": 53.04417
    },
    {
        "id": 2759706,
        "name": "Apeldoorn",
        "lon": 5.96944,
        "lat": 52.209999
    },
    {
        "id": 2759687,
        "name": "Appingedam",
        "lon": 6.85833,
        "lat": 53.321671
    },
    {
        "id": 2759684,
        "name": "Arcen",
        "lon": 6.18056,
        "lat": 51.476669
    },
    {
        "id": 2759661,
        "name": "Arnhem",
        "lon": 5.91111,
        "lat": 51.98
    },
    {
        "id": 2759633,
        "name": "Assen",
        "lon": 6.5625,
        "lat": 52.99667
    },
    {
        "id": 2759621,
        "name": "Asten",
        "lon": 5.74861,
        "lat": 51.404171
    },
    {
        "id": 2759611,
        "name": "Augustinusga",
        "lon": 6.1617,
        "lat": 53.21785
    },
    {
        "id": 2759594,
        "name": "Axel",
        "lon": 3.90833,
        "lat": 51.26667
    },
    {
        "id": 2759581,
        "name": "Baak",
        "lon": 6.22778,
        "lat": 52.077499
    },
    {
        "id": 6544755,
        "name": "Baakwoning",
        "lon": 4.18889,
        "lat": 52.005001
    },
    {
        "id": 2759554,
        "name": "Baarle-Nassau",
        "lon": 4.92917,
        "lat": 51.447498
    },
    {
        "id": 2759544,
        "name": "Baarn",
        "lon": 5.2875,
        "lat": 52.21167
    },
    {
        "id": 2759472,
        "name": "Balk",
        "lon": 5.57964,
        "lat": 52.89756
    },
    {
        "id": 2759429,
        "name": "Barchem",
        "lon": 6.44306,
        "lat": 52.124168
    },
    {
        "id": 2759426,
        "name": "Barendrecht",
        "lon": 4.53472,
        "lat": 51.85667
    },
    {
        "id": 2759407,
        "name": "Barneveld",
        "lon": 5.58472,
        "lat": 52.139999
    },
    {
        "id": 2759397,
        "name": "Barsingerhorn",
        "lon": 4.86389,
        "lat": 52.785
    },
    {
        "id": 2759356,
        "name": "Bedum",
        "lon": 6.60278,
        "lat": 53.300831
    },
    {
        "id": 2759350,
        "name": "Beek",
        "lon": 5.79722,
        "lat": 50.94083
    },
    {
        "id": 2759342,
        "name": "Beekbergen",
        "lon": 5.96389,
        "lat": 52.16
    },
    {
        "id": 2759286,
        "name": "Beesel",
        "lon": 6.03889,
        "lat": 51.26833
    },
    {
        "id": 2759199,
        "name": "Bennebroek",
        "lon": 4.59861,
        "lat": 52.320831
    },
    {
        "id": 2759197,
        "name": "Bennekom",
        "lon": 5.67639,
        "lat": 51.998329
    },
    {
        "id": 2759178,
        "name": "Benthuizen",
        "lon": 4.54444,
        "lat": 52.077499
    },
    {
        "id": 2759163,
        "name": "Berg",
        "lon": 5.77083,
        "lat": 51.004169
    },
    {
        "id": 2759147,
        "name": "Berg en Dal",
        "lon": 5.91667,
        "lat": 51.821671
    },
    {
        "id": 2759131,
        "name": "Bergeijk",
        "lon": 5.35,
        "lat": 51.316669
    },
    {
        "id": 2759145,
        "name": "Bergen op Zoom",
        "lon": 4.29167,
        "lat": 51.494999
    },
    {
        "id": 2759129,
        "name": "Bergharen",
        "lon": 5.66944,
        "lat": 51.85083
    },
    {
        "id": 2759126,
        "name": "Berghem",
        "lon": 5.56827,
        "lat": 51.769909
    },
    {
        "id": 2759113,
        "name": "Bergschenhoek",
        "lon": 4.49861,
        "lat": 51.990002
    },
    {
        "id": 2759089,
        "name": "Berkel",
        "lon": 4.48723,
        "lat": 52.003059
    },
    {
        "id": 6929992,
        "name": "Berkel en Rodenrijs",
        "lon": 4.47865,
        "lat": 51.99313
    },
    {
        "id": 6544286,
        "name": "Berkelland",
        "lon": 6.56748,
        "lat": 52.10606
    },
    {
        "id": 2759057,
        "name": "Berltsum",
        "lon": 5.65101,
        "lat": 53.243698
    },
    {
        "id": 2759040,
        "name": "Best",
        "lon": 5.39028,
        "lat": 51.5075
    },
    {
        "id": 2759016,
        "name": "Beuningen",
        "lon": 5.76667,
        "lat": 51.860828
    },
    {
        "id": 2758998,
        "name": "Beverwijk",
        "lon": 4.65694,
        "lat": 52.48333
    },
    {
        "id": 2758992,
        "name": "Biddinghuizen",
        "lon": 5.69306,
        "lat": 52.455002
    },
    {
        "id": 2758991,
        "name": "Bieberg",
        "lon": 4.79186,
        "lat": 51.559139
    },
    {
        "id": 2758974,
        "name": "Biesdonk",
        "lon": 4.78333,
        "lat": 51.599998
    },
    {
        "id": 2758930,
        "name": "Bilgaard",
        "lon": 5.79574,
        "lat": 53.2155
    },
    {
        "id": 6621526,
        "name": "Binnenstad",
        "lon": 5.96712,
        "lat": 52.211971
    },
    {
        "id": 2758878,
        "name": "Bladel",
        "lon": 5.22083,
        "lat": 51.368328
    },
    {
        "id": 2758868,
        "name": "Blaricum",
        "lon": 5.24167,
        "lat": 52.272499
    },
    {
        "id": 2758838,
        "name": "Bleiswijk",
        "lon": 4.53194,
        "lat": 52.01083
    },
    {
        "id": 2758803,
        "name": "Bloemendaal",
        "lon": 4.6944,
        "lat": 52.028782
    },
    {
        "id": 2758777,
        "name": "Blokzijl",
        "lon": 5.96111,
        "lat": 52.726669
    },
    {
        "id": 2758765,
        "name": "Bodegraven",
        "lon": 4.75,
        "lat": 52.0825
    },
    {
        "id": 2758759,
        "name": "Boekel",
        "lon": 5.675,
        "lat": 51.603329
    },
    {
        "id": 2758748,
        "name": "Boelenslaan",
        "lon": 6.14479,
        "lat": 53.161701
    },
    {
        "id": 2758682,
        "name": "Bolsward",
        "lon": 5.53176,
        "lat": 53.06554
    },
    {
        "id": 2758663,
        "name": "Bong",
        "lon": 6.17083,
        "lat": 51.431671
    },
    {
        "id": 2758652,
        "name": "Bonrepas",
        "lon": 4.84444,
        "lat": 51.963329
    },
    {
        "id": 2758633,
        "name": "Boornbergum",
        "lon": 6.04578,
        "lat": 53.08284
    },
    {
        "id": 2758626,
        "name": "Borculo",
        "lon": 6.52222,
        "lat": 52.115829
    },
    {
        "id": 2758621,
        "name": "Borger",
        "lon": 6.79306,
        "lat": 52.923328
    },
    {
        "id": 2758602,
        "name": "Born",
        "lon": 5.80972,
        "lat": 51.03167
    },
    {
        "id": 2758598,
        "name": "Borne",
        "lon": 6.7482,
        "lat": 52.301361
    },
    {
        "id": 2758587,
        "name": "Borssele",
        "lon": 3.73472,
        "lat": 51.423328
    },
    {
        "id": 2758549,
        "name": "Boskamp",
        "lon": 6.12778,
        "lat": 52.33083
    },
    {
        "id": 2758547,
        "name": "Boskoop",
        "lon": 4.65556,
        "lat": 52.075001
    },
    {
        "id": 2758500,
        "name": "Boven-Hardinxveld",
        "lon": 4.88194,
        "lat": 51.82333
    },
    {
        "id": 2758490,
        "name": "Boven-Leeuwen",
        "lon": 5.55278,
        "lat": 51.884998
    },
    {
        "id": 2758462,
        "name": "Boxmeer",
        "lon": 5.94722,
        "lat": 51.646671
    },
    {
        "id": 2758460,
        "name": "Boxtel",
        "lon": 5.32917,
        "lat": 51.590832
    },
    {
        "id": 2758432,
        "name": "Braband",
        "lon": 4.33333,
        "lat": 51.833328
    },
    {
        "id": 2758405,
        "name": "Brandwijk",
        "lon": 4.81389,
        "lat": 51.890831
    },
    {
        "id": 2758401,
        "name": "Breda",
        "lon": 4.77596,
        "lat": 51.586559
    },
    {
        "id": 2758393,
        "name": "Bredevoort",
        "lon": 6.62083,
        "lat": 51.941669
    },
    {
        "id": 2758391,
        "name": "Bredeweg",
        "lon": 5.94189,
        "lat": 51.760189
    },
    {
        "id": 2758336,
        "name": "Breugel",
        "lon": 5.51111,
        "lat": 51.517502
    },
    {
        "id": 2758333,
        "name": "Breukelen",
        "lon": 5.00139,
        "lat": 52.174171
    },
    {
        "id": 2758326,
        "name": "Brielle",
        "lon": 4.1625,
        "lat": 51.901669
    },
    {
        "id": 2758309,
        "name": "Britsum",
        "lon": 5.78576,
        "lat": 53.25428
    },
    {
        "id": 2758258,
        "name": "Broek in Waterland",
        "lon": 4.99583,
        "lat": 52.43417
    },
    {
        "id": 2758245,
        "name": "Broek op Langedijk",
        "lon": 4.80556,
        "lat": 52.674171
    },
    {
        "id": 2758275,
        "name": "Broekhem",
        "lon": 5.82069,
        "lat": 50.871189
    },
    {
        "id": 2758239,
        "name": "Broeksterwâld",
        "lon": 5.99648,
        "lat": 53.274658
    },
    {
        "id": 2758186,
        "name": "Bruinisse",
        "lon": 4.09444,
        "lat": 51.661671
    },
    {
        "id": 2758177,
        "name": "Brummen",
        "lon": 6.15556,
        "lat": 52.09
    },
    {
        "id": 2758174,
        "name": "Brunssum",
        "lon": 5.97083,
        "lat": 50.946671
    },
    {
        "id": 2758131,
        "name": "Buitenpost",
        "lon": 6.14483,
        "lat": 53.251659
    },
    {
        "id": 2758106,
        "name": "Bunnik",
        "lon": 5.19861,
        "lat": 52.066669
    },
    {
        "id": 2758104,
        "name": "Bunschoten",
        "lon": 5.37884,
        "lat": 52.243038
    },
    {
        "id": 2758895,
        "name": "Burdaard",
        "lon": 5.87897,
        "lat": 53.294209
    },
    {
        "id": 7870374,
        "name": "Burgemeesterswijk",
        "lon": 5.89597,
        "lat": 51.989429
    },
    {
        "id": 2758086,
        "name": "Burgersdijk",
        "lon": 4.26111,
        "lat": 51.96833
    },
    {
        "id": 2758081,
        "name": "Burgh",
        "lon": 3.73333,
        "lat": 51.689171
    },
    {
        "id": 2759103,
        "name": "Burgum",
        "lon": 5.99009,
        "lat": 53.192429
    },
    {
        "id": 2758064,
        "name": "Bussum",
        "lon": 5.16111,
        "lat": 52.273331
    },
    {
        "id": 6324403,
        "name": "Camminghaburen",
        "lon": 5.84318,
        "lat": 53.209728
    },
    {
        "id": 2758012,
        "name": "Capelle aan den IJssel",
        "lon": 4.57778,
        "lat": 51.929169
    },
    {
        "id": 2758007,
        "name": "Capelle-West",
        "lon": 4.56667,
        "lat": 51.916672
    },
    {
        "id": 2757991,
        "name": "Castricum",
        "lon": 4.66944,
        "lat": 52.548328
    },
    {
        "id": 2757938,
        "name": "Coevering",
        "lon": 5.57463,
        "lat": 51.417419
    },
    {
        "id": 2757937,
        "name": "Coevorden",
        "lon": 6.74046,
        "lat": 52.66103
    },
    {
        "id": 2757890,
        "name": "Cranendonck",
        "lon": 5.58889,
        "lat": 51.304169
    },
    {
        "id": 2757874,
        "name": "Cuijk",
        "lon": 5.87917,
        "lat": 51.730831
    },
    {
        "id": 2757872,
        "name": "Culemborg",
        "lon": 5.22778,
        "lat": 51.955002
    },
    {
        "id": 2757857,
        "name": "Dalen",
        "lon": 6.75556,
        "lat": 52.699169
    },
    {
        "id": 2757850,
        "name": "Dalfsen",
        "lon": 6.25694,
        "lat": 52.511669
    },
    {
        "id": 2757838,
        "name": "Damwâld",
        "lon": 5.99785,
        "lat": 53.290459
    },
    {
        "id": 2757783,
        "name": "De Bilt",
        "lon": 5.18056,
        "lat": 52.110001
    },
    {
        "id": 2757685,
        "name": "De Doornakkers",
        "lon": 5.50887,
        "lat": 51.438438
    },
    {
        "id": 6621532,
        "name": "De Heeze",
        "lon": 5.95365,
        "lat": 52.200611
    },
    {
        "id": 2757493,
        "name": "De Horst",
        "lon": 5.96806,
        "lat": 51.77417
    },
    {
        "id": 6697854,
        "name": "De Knipe",
        "lon": 5.97116,
        "lat": 52.968288
    },
    {
        "id": 2757374,
        "name": "De Laar",
        "lon": 5.86395,
        "lat": 51.948441
    },
    {
        "id": 2757336,
        "name": "De Lier",
        "lon": 4.24861,
        "lat": 51.974998
    },
    {
        "id": 2757167,
        "name": "De Pan",
        "lon": 4.4,
        "lat": 52.172501
    },
    {
        "id": 2757041,
        "name": "De Steeg",
        "lon": 6.06111,
        "lat": 52.02
    },
    {
        "id": 6544725,
        "name": "De Steegh",
        "lon": 6.15234,
        "lat": 51.454521
    },
    {
        "id": 2743590,
        "name": "De Westereen",
        "lon": 6.0363,
        "lat": 53.257309
    },
    {
        "id": 2757698,
        "name": "Dedemsvaart",
        "lon": 6.45833,
        "lat": 52.599998
    },
    {
        "id": 2757475,
        "name": "Deinum",
        "lon": 5.72431,
        "lat": 53.191818
    },
    {
        "id": 2757370,
        "name": "Delden",
        "lon": 6.71111,
        "lat": 52.259998
    },
    {
        "id": 2757347,
        "name": "Delfshaven",
        "lon": 4.45315,
        "lat": 51.904881
    },
    {
        "id": 2757345,
        "name": "Delft",
        "lon": 4.35556,
        "lat": 52.006672
    },
    {
        "id": 2757340,
        "name": "Delfzijl",
        "lon": 6.91806,
        "lat": 53.330002
    },
    {
        "id": 2757244,
        "name": "Den Burg",
        "lon": 4.79722,
        "lat": 53.054169
    },
    {
        "id": 2757224,
        "name": "Den Ham",
        "lon": 6.49583,
        "lat": 52.465832
    },
    {
        "id": 2757220,
        "name": "Den Helder",
        "lon": 4.75933,
        "lat": 52.959881
    },
    {
        "id": 2757194,
        "name": "Den Oever",
        "lon": 5.03079,
        "lat": 52.933529
    },
    {
        "id": 2756987,
        "name": "Deventer",
        "lon": 6.16389,
        "lat": 52.255001
    },
    {
        "id": 2756888,
        "name": "Diemen",
        "lon": 4.96256,
        "lat": 52.339642
    },
    {
        "id": 2756878,
        "name": "Diepenheim",
        "lon": 6.55556,
        "lat": 52.200001
    },
    {
        "id": 2756865,
        "name": "Dieren",
        "lon": 6.1,
        "lat": 52.052502
    },
    {
        "id": 2756800,
        "name": "Dinteloord",
        "lon": 4.36944,
        "lat": 51.634998
    },
    {
        "id": 2756787,
        "name": "Dirksland",
        "lon": 4.1,
        "lat": 51.749168
    },
    {
        "id": 2756774,
        "name": "Doenrade",
        "lon": 5.90694,
        "lat": 50.967499
    },
    {
        "id": 2756772,
        "name": "Doesburg",
        "lon": 6.13889,
        "lat": 52.012501
    },
    {
        "id": 2756767,
        "name": "Doetinchem",
        "lon": 6.28889,
        "lat": 51.965
    },
    {
        "id": 2756759,
        "name": "Dokkum",
        "lon": 5.99698,
        "lat": 53.322239
    },
    {
        "id": 2756746,
        "name": "Domburg",
        "lon": 3.49583,
        "lat": 51.563332
    },
    {
        "id": 2756723,
        "name": "Dongen",
        "lon": 4.93889,
        "lat": 51.626671
    },
    {
        "id": 2756686,
        "name": "Doorn",
        "lon": 5.34571,
        "lat": 52.033428
    },
    {
        "id": 2756683,
        "name": "Doornenburg",
        "lon": 6,
        "lat": 51.889999
    },
    {
        "id": 2756673,
        "name": "Doorwerth",
        "lon": 5.79722,
        "lat": 51.979172
    },
    {
        "id": 2756669,
        "name": "Dordrecht",
        "lon": 4.67361,
        "lat": 51.810001
    },
    {
        "id": 2756644,
        "name": "Drachten",
        "lon": 6.0989,
        "lat": 53.112541
    },
    {
        "id": 2756642,
        "name": "Drachtstercompagnie",
        "lon": 6.14153,
        "lat": 53.134621
    },
    {
        "id": 2756619,
        "name": "Driebergen-Rijsenburg",
        "lon": 5.28056,
        "lat": 52.053329
    },
    {
        "id": 2756598,
        "name": "Driehuis",
        "lon": 4.6375,
        "lat": 52.446671
    },
    {
        "id": 2756591,
        "name": "Driel",
        "lon": 5.81389,
        "lat": 51.959171
    },
    {
        "id": 2756584,
        "name": "Driemond",
        "lon": 5.01667,
        "lat": 52.305828
    },
    {
        "id": 2756569,
        "name": "Drimmelen",
        "lon": 4.80417,
        "lat": 51.706669
    },
    {
        "id": 2756567,
        "name": "Drogeham",
        "lon": 6.11183,
        "lat": 53.202129
    },
    {
        "id": 2756561,
        "name": "Dronryp",
        "lon": 5.65,
        "lat": 53.200001
    },
    {
        "id": 2756559,
        "name": "Dronten",
        "lon": 5.71806,
        "lat": 52.525002
    },
    {
        "id": 2756539,
        "name": "Druten",
        "lon": 5.60556,
        "lat": 51.888329
    },
    {
        "id": 2756507,
        "name": "Duiven",
        "lon": 6.01389,
        "lat": 51.946671
    },
    {
        "id": 2756504,
        "name": "Duivendrecht",
        "lon": 4.93964,
        "lat": 52.329411
    },
    {
        "id": 2756451,
        "name": "Dwingeloo",
        "lon": 6.36944,
        "lat": 52.834171
    },
    {
        "id": 2749430,
        "name": "Eastermar",
        "lon": 6.05999,
        "lat": 53.17466
    },
    {
        "id": 2756438,
        "name": "Echtenerbrug",
        "lon": 5.82147,
        "lat": 52.87141
    },
    {
        "id": 2756431,
        "name": "Edam",
        "lon": 5.04805,
        "lat": 52.51215
    },
    {
        "id": 2756429,
        "name": "Ede",
        "lon": 5.65833,
        "lat": 52.033329
    },
    {
        "id": 2756426,
        "name": "Ederveen",
        "lon": 5.57778,
        "lat": 52.063332
    },
    {
        "id": 2756418,
        "name": "Eefde",
        "lon": 6.225,
        "lat": 52.166672
    },
    {
        "id": 2756380,
        "name": "Een",
        "lon": 6.39583,
        "lat": 53.076672
    },
    {
        "id": 2756351,
        "name": "Eerbeek",
        "lon": 6.05833,
        "lat": 52.105
    },
    {
        "id": 2756349,
        "name": "Eerde",
        "lon": 5.49861,
        "lat": 51.604172
    },
    {
        "id": 2756342,
        "name": "Eersel",
        "lon": 5.31806,
        "lat": 51.357498
    },
    {
        "id": 2756301,
        "name": "Egmond aan Zee",
        "lon": 4.62705,
        "lat": 52.620399
    },
    {
        "id": 2756295,
        "name": "Eibergen",
        "lon": 6.64861,
        "lat": 52.099998
    },
    {
        "id": 2756283,
        "name": "Eijsden",
        "lon": 5.7177,
        "lat": 50.779999
    },
    {
        "id": 2756253,
        "name": "Eindhoven",
        "lon": 5.47778,
        "lat": 51.44083
    },
    {
        "id": 2756232,
        "name": "Elburg",
        "lon": 5.84306,
        "lat": 52.447498
    },
    {
        "id": 2756229,
        "name": "Elden",
        "lon": 5.88194,
        "lat": 51.958328
    },
    {
        "id": 2756200,
        "name": "Ellecom",
        "lon": 6.0875,
        "lat": 52.032501
    },
    {
        "id": 2756169,
        "name": "Elsloo",
        "lon": 5.77083,
        "lat": 50.949169
    },
    {
        "id": 2756161,
        "name": "Elst",
        "lon": 5.84167,
        "lat": 51.91917
    },
    {
        "id": 2756139,
        "name": "Emmeloord",
        "lon": 5.74861,
        "lat": 52.710831
    },
    {
        "id": 2756136,
        "name": "Emmen",
        "lon": 6.90694,
        "lat": 52.779171
    },
    {
        "id": 2756133,
        "name": "Emmer-Compascuum",
        "lon": 7.04722,
        "lat": 52.811668
    },
    {
        "id": 2756114,
        "name": "Emst",
        "lon": 5.97361,
        "lat": 52.31583
    },
    {
        "id": 2756100,
        "name": "Engeland",
        "lon": 6.36944,
        "lat": 52.767502
    },
    {
        "id": 2756077,
        "name": "Enkhuizen",
        "lon": 5.29167,
        "lat": 52.703331
    },
    {
        "id": 2756072,
        "name": "Ens",
        "lon": 5.82778,
        "lat": 52.636669
    },
    {
        "id": 2756071,
        "name": "Enschede",
        "lon": 6.89583,
        "lat": 52.21833
    },
    {
        "id": 2756059,
        "name": "Epe",
        "lon": 5.98333,
        "lat": 52.3475
    },
    {
        "id": 2756050,
        "name": "Epse",
        "lon": 6.2,
        "lat": 52.224998
    },
    {
        "id": 2756039,
        "name": "Ermelo",
        "lon": 5.62222,
        "lat": 52.298328
    },
    {
        "id": 2756035,
        "name": "Erp",
        "lon": 5.60694,
        "lat": 51.599998
    },
    {
        "id": 2756016,
        "name": "Espelo",
        "lon": 6.86667,
        "lat": 52.25
    },
    {
        "id": 2755996,
        "name": "Etten-Leur",
        "lon": 4.63726,
        "lat": 51.57056
    },
    {
        "id": 2755982,
        "name": "Euvelgunne",
        "lon": 6.60278,
        "lat": 53.215832
    },
    {
        "id": 2745743,
        "name": "Feanwâlden",
        "lon": 5.98832,
        "lat": 53.23558
    },
    {
        "id": 2755920,
        "name": "Ferwert",
        "lon": 5.82533,
        "lat": 53.337841
    },
    {
        "id": 2755893,
        "name": "Flevowijk",
        "lon": 5.91338,
        "lat": 52.54583
    },
    {
        "id": 2755873,
        "name": "Folgeren",
        "lon": 6.08969,
        "lat": 53.12447
    },
    {
        "id": 2755862,
        "name": "Fort",
        "lon": 6.38611,
        "lat": 52.651669
    },
    {
        "id": 2755845,
        "name": "Franeker",
        "lon": 5.54123,
        "lat": 53.185459
    },
    {
        "id": 6544876,
        "name": "Friese Buurt",
        "lon": 4.77361,
        "lat": 52.921669
    },
    {
        "id": 2755774,
        "name": "Gageldonk",
        "lon": 4.73889,
        "lat": 51.601669
    },
    {
        "id": 2755732,
        "name": "Garderen",
        "lon": 5.71389,
        "lat": 52.230831
    },
    {
        "id": 2755729,
        "name": "Garyp",
        "lon": 5.96667,
        "lat": 53.166672
    },
    {
        "id": 2755669,
        "name": "Geertruidenberg",
        "lon": 4.85694,
        "lat": 51.701672
    },
    {
        "id": 2755645,
        "name": "Geffen",
        "lon": 5.46389,
        "lat": 51.740002
    },
    {
        "id": 2755633,
        "name": "Geldermalsen",
        "lon": 5.28889,
        "lat": 51.880829
    },
    {
        "id": 2755619,
        "name": "Geldrop",
        "lon": 5.55972,
        "lat": 51.421669
    },
    {
        "id": 2755616,
        "name": "Geleen",
        "lon": 5.82917,
        "lat": 50.974171
    },
    {
        "id": 7535498,
        "name": "Gemeente  Oldambt",
        "lon": 7.04224,
        "lat": 53.168591
    },
    {
        "id": 2747350,
        "name": "Gemeente 's-Hertogenbosch",
        "lon": 5.30056,
        "lat": 51.682671
    },
    {
        "id": 6544296,
        "name": "Gemeente Aa en Hunze",
        "lon": 6.74908,
        "lat": 53.004452
    },
    {
        "id": 2760143,
        "name": "Gemeente Aalburg",
        "lon": 5.13333,
        "lat": 51.75
    },
    {
        "id": 2760133,
        "name": "Gemeente Aalsmeer",
        "lon": 4.76532,
        "lat": 52.264061
    },
    {
        "id": 2760122,
        "name": "Gemeente Aalten",
        "lon": 6.58333,
        "lat": 51.916672
    },
    {
        "id": 2759914,
        "name": "Gemeente Alblasserdam",
        "lon": 4.66321,
        "lat": 51.859852
    },
    {
        "id": 6544242,
        "name": "Gemeente Albrandswaard",
        "lon": 4.40833,
        "lat": 51.857922
    },
    {
        "id": 2759898,
        "name": "Gemeente Alkmaar",
        "lon": 4.74403,
        "lat": 52.628899
    },
    {
        "id": 2759886,
        "name": "Gemeente Almelo",
        "lon": 6.63333,
        "lat": 52.333328
    },
    {
        "id": 6544259,
        "name": "Gemeente Almere",
        "lon": 5.2375,
        "lat": 52.36861
    },
    {
        "id": 2759874,
        "name": "Gemeente Alphen aan den Rijn",
        "lon": 4.65,
        "lat": 52.133331
    },
    {
        "id": 2759820,
        "name": "Gemeente Amersfoort",
        "lon": 5.36667,
        "lat": 52.150002
    },
    {
        "id": 2759797,
        "name": "Gemeente Amstelveen",
        "lon": 4.85767,
        "lat": 52.298401
    },
    {
        "id": 2759793,
        "name": "Gemeente Amsterdam",
        "lon": 4.88333,
        "lat": 52.366669
    },
    {
        "id": 2759705,
        "name": "Gemeente Apeldoorn",
        "lon": 5.96667,
        "lat": 52.200001
    },
    {
        "id": 2759660,
        "name": "Gemeente Arnhem",
        "lon": 5.9,
        "lat": 51.966671
    },
    {
        "id": 2759632,
        "name": "Gemeente Assen",
        "lon": 6.55,
        "lat": 52.98333
    },
    {
        "id": 2759619,
        "name": "Gemeente Asten",
        "lon": 5.73333,
        "lat": 51.400002
    },
    {
        "id": 2759553,
        "name": "Gemeente Baarle-Nassau",
        "lon": 4.91667,
        "lat": 51.433331
    },
    {
        "id": 2759543,
        "name": "Gemeente Baarn",
        "lon": 5.28333,
        "lat": 52.200001
    },
    {
        "id": 2759425,
        "name": "Gemeente Barendrecht",
        "lon": 4.53333,
        "lat": 51.849998
    },
    {
        "id": 2759406,
        "name": "Gemeente Barneveld",
        "lon": 5.58333,
        "lat": 52.133331
    },
    {
        "id": 2759343,
        "name": "Gemeente Beek",
        "lon": 5.78333,
        "lat": 50.933331
    },
    {
        "id": 2755270,
        "name": "Gemeente Berg en Dal",
        "lon": 5.91667,
        "lat": 51.76667
    },
    {
        "id": 2759151,
        "name": "Gemeente Bergen",
        "lon": 4.7,
        "lat": 52.666672
    },
    {
        "id": 2759144,
        "name": "Gemeente Bergen op Zoom",
        "lon": 4.29164,
        "lat": 51.506962
    },
    {
        "id": 6544268,
        "name": "Gemeente Bernheze",
        "lon": 5.52378,
        "lat": 51.685558
    },
    {
        "id": 2759039,
        "name": "Gemeente Best",
        "lon": 5.38333,
        "lat": 51.5
    },
    {
        "id": 2759014,
        "name": "Gemeente Beuningen",
        "lon": 5.76667,
        "lat": 51.849998
    },
    {
        "id": 2758997,
        "name": "Gemeente Beverwijk",
        "lon": 4.65468,
        "lat": 52.482731
    },
    {
        "id": 2758877,
        "name": "Gemeente Bladel",
        "lon": 5.21667,
        "lat": 51.349998
    },
    {
        "id": 2758802,
        "name": "Gemeente Bloemendaal",
        "lon": 4.61667,
        "lat": 52.400002
    },
    {
        "id": 2758619,
        "name": "Gemeente Borger-Odoorn",
        "lon": 6.78333,
        "lat": 52.916672
    },
    {
        "id": 2758597,
        "name": "Gemeente Borne",
        "lon": 6.75,
        "lat": 52.299999
    },
    {
        "id": 2758588,
        "name": "Gemeente Borsele",
        "lon": 3.81127,
        "lat": 51.44191
    },
    {
        "id": 2758546,
        "name": "Gemeente Boskoop",
        "lon": 4.65,
        "lat": 52.066669
    },
    {
        "id": 2758461,
        "name": "Gemeente Boxmeer",
        "lon": 5.95,
        "lat": 51.633331
    },
    {
        "id": 2758459,
        "name": "Gemeente Boxtel",
        "lon": 5.31667,
        "lat": 51.583328
    },
    {
        "id": 2758400,
        "name": "Gemeente Breda",
        "lon": 4.76667,
        "lat": 51.583328
    },
    {
        "id": 2758325,
        "name": "Gemeente Brielle",
        "lon": 4.15,
        "lat": 51.900002
    },
    {
        "id": 6544290,
        "name": "Gemeente Bronckhorst",
        "lon": 6.30378,
        "lat": 52.04401
    },
    {
        "id": 2758176,
        "name": "Gemeente Brummen",
        "lon": 6.15,
        "lat": 52.083328
    },
    {
        "id": 2758173,
        "name": "Gemeente Brunssum",
        "lon": 5.95,
        "lat": 50.933331
    },
    {
        "id": 2758103,
        "name": "Gemeente Bunschoten",
        "lon": 5.36667,
        "lat": 52.23333
    },
    {
        "id": 2758095,
        "name": "Gemeente Buren",
        "lon": 5.33403,
        "lat": 51.909012
    },
    {
        "id": 2758063,
        "name": "Gemeente Bussum",
        "lon": 5.16667,
        "lat": 52.26667
    },
    {
        "id": 2758011,
        "name": "Gemeente Capelle aan den IJssel",
        "lon": 4.57819,
        "lat": 51.935669
    },
    {
        "id": 2757990,
        "name": "Gemeente Castricum",
        "lon": 4.66667,
        "lat": 52.549999
    },
    {
        "id": 2757936,
        "name": "Gemeente Coevorden",
        "lon": 6.78333,
        "lat": 52.666672
    },
    {
        "id": 6544288,
        "name": "Gemeente Cranendonck",
        "lon": 5.58373,
        "lat": 51.277458
    },
    {
        "id": 2757873,
        "name": "Gemeente Cuijk",
        "lon": 5.86667,
        "lat": 51.716671
    },
    {
        "id": 2757871,
        "name": "Gemeente Culemborg",
        "lon": 5.21667,
        "lat": 51.950001
    },
    {
        "id": 2757849,
        "name": "Gemeente Dalfsen",
        "lon": 6.25,
        "lat": 52.5
    },
    {
        "id": 2757782,
        "name": "Gemeente De Bilt",
        "lon": 5.2,
        "lat": 52.133331
    },
    {
        "id": 6544229,
        "name": "Gemeente De Marne",
        "lon": 6.3944,
        "lat": 53.367119
    },
    {
        "id": 6544250,
        "name": "Gemeente De Ronde Venen",
        "lon": 4.90123,
        "lat": 52.215149
    },
    {
        "id": 6544227,
        "name": "Gemeente De Wolden",
        "lon": 6.37277,
        "lat": 52.701019
    },
    {
        "id": 2757344,
        "name": "Gemeente Delft",
        "lon": 4.35,
        "lat": 52
    },
    {
        "id": 2757339,
        "name": "Gemeente Delfzijl",
        "lon": 6.9,
        "lat": 53.316669
    },
    {
        "id": 2747372,
        "name": "Gemeente Den Haag",
        "lon": 4.3,
        "lat": 52.066669
    },
    {
        "id": 2757219,
        "name": "Gemeente Den Helder",
        "lon": 4.75,
        "lat": 52.950001
    },
    {
        "id": 2756986,
        "name": "Gemeente Deventer",
        "lon": 6.15,
        "lat": 52.25
    },
    {
        "id": 2756887,
        "name": "Gemeente Diemen",
        "lon": 4.96805,
        "lat": 52.341629
    },
    {
        "id": 2756766,
        "name": "Gemeente Doetinchem",
        "lon": 6.28333,
        "lat": 51.950001
    },
    {
        "id": 2756722,
        "name": "Gemeente Dongen",
        "lon": 4.95334,
        "lat": 51.63533
    },
    {
        "id": 2756668,
        "name": "Gemeente Dordrecht",
        "lon": 4.65,
        "lat": 51.799999
    },
    {
        "id": 6544254,
        "name": "Gemeente Drechterland",
        "lon": 5.16569,
        "lat": 52.664539
    },
    {
        "id": 2751271,
        "name": "Gemeente Drimmelen",
        "lon": 4.78333,
        "lat": 51.666672
    },
    {
        "id": 2756558,
        "name": "Gemeente Dronten",
        "lon": 5.71667,
        "lat": 52.5
    },
    {
        "id": 2756538,
        "name": "Gemeente Druten",
        "lon": 5.6,
        "lat": 51.883331
    },
    {
        "id": 2756506,
        "name": "Gemeente Duiven",
        "lon": 6.01667,
        "lat": 51.933331
    },
    {
        "id": 2756443,
        "name": "Gemeente Echt-Susteren",
        "lon": 5.86667,
        "lat": 51.099998
    },
    {
        "id": 2756430,
        "name": "Gemeente Edam-Volendam",
        "lon": 5.0592,
        "lat": 52.505562
    },
    {
        "id": 2756428,
        "name": "Gemeente Ede",
        "lon": 5.66667,
        "lat": 52.033329
    },
    {
        "id": 6544278,
        "name": "Gemeente Eemsmond",
        "lon": 6.66739,
        "lat": 53.400341
    },
    {
        "id": 2756341,
        "name": "Gemeente Eersel",
        "lon": 5.3,
        "lat": 51.349998
    },
    {
        "id": 2756252,
        "name": "Gemeente Eindhoven",
        "lon": 5.46667,
        "lat": 51.433331
    },
    {
        "id": 2756231,
        "name": "Gemeente Elburg",
        "lon": 5.81667,
        "lat": 52.433331
    },
    {
        "id": 2756134,
        "name": "Gemeente Emmen",
        "lon": 6.98333,
        "lat": 52.76667
    },
    {
        "id": 2756076,
        "name": "Gemeente Enkhuizen",
        "lon": 5.28333,
        "lat": 52.700001
    },
    {
        "id": 2756070,
        "name": "Gemeente Enschede",
        "lon": 6.88333,
        "lat": 52.216671
    },
    {
        "id": 2756058,
        "name": "Gemeente Epe",
        "lon": 5.98333,
        "lat": 52.333328
    },
    {
        "id": 2756038,
        "name": "Gemeente Ermelo",
        "lon": 5.61667,
        "lat": 52.299999
    },
    {
        "id": 2755994,
        "name": "Gemeente Etten-Leur",
        "lon": 4.64223,
        "lat": 51.579239
    },
    {
        "id": 2755668,
        "name": "Gemeente Geertruidenberg",
        "lon": 4.88042,
        "lat": 51.69445
    },
    {
        "id": 2755632,
        "name": "Gemeente Geldermalsen",
        "lon": 5.28333,
        "lat": 51.866669
    },
    {
        "id": 6544232,
        "name": "Gemeente Geldrop-Mierlo",
        "lon": 5.59926,
        "lat": 51.43372
    },
    {
        "id": 2755583,
        "name": "Gemeente Gennep",
        "lon": 5.96667,
        "lat": 51.683331
    },
    {
        "id": 2755506,
        "name": "Gemeente Gilze en Rijen",
        "lon": 4.95,
        "lat": 51.533329
    },
    {
        "id": 2755484,
        "name": "Gemeente Goedereede",
        "lon": 3.96667,
        "lat": 51.816669
    },
    {
        "id": 2755475,
        "name": "Gemeente Goes",
        "lon": 3.84082,
        "lat": 51.51263
    },
    {
        "id": 2755463,
        "name": "Gemeente Goirle",
        "lon": 5.05,
        "lat": 51.51667
    },
    {
        "id": 2755433,
        "name": "Gemeente Gorinchem",
        "lon": 4.96667,
        "lat": 51.833328
    },
    {
        "id": 2755419,
        "name": "Gemeente Gouda",
        "lon": 4.7,
        "lat": 52
    },
    {
        "id": 6544272,
        "name": "Gemeente Graafstroom",
        "lon": 4.80126,
        "lat": 51.87727
    },
    {
        "id": 2755357,
        "name": "Gemeente Grave",
        "lon": 5.73333,
        "lat": 51.75
    },
    {
        "id": 2755250,
        "name": "Gemeente Groningen",
        "lon": 6.55,
        "lat": 53.200001
    },
    {
        "id": 2755203,
        "name": "Gemeente Grootegast",
        "lon": 6.26667,
        "lat": 53.200001
    },
    {
        "id": 2755031,
        "name": "Gemeente Haaksbergen",
        "lon": 6.73333,
        "lat": 52.150002
    },
    {
        "id": 2755002,
        "name": "Gemeente Haarlem",
        "lon": 4.63333,
        "lat": 52.366669
    },
    {
        "id": 2754999,
        "name": "Gemeente Haarlemmermeer",
        "lon": 4.66667,
        "lat": 52.299999
    },
    {
        "id": 2754858,
        "name": "Gemeente Hardenberg",
        "lon": 6.6,
        "lat": 52.599998
    },
    {
        "id": 2754846,
        "name": "Gemeente Harderwijk",
        "lon": 5.61667,
        "lat": 52.333328
    },
    {
        "id": 2754840,
        "name": "Gemeente Haren",
        "lon": 6.6,
        "lat": 53.166672
    },
    {
        "id": 2754836,
        "name": "Gemeente Harenkarspel",
        "lon": 4.76667,
        "lat": 52.75
    },
    {
        "id": 2754816,
        "name": "Gemeente Harlingen",
        "lon": 5.41806,
        "lat": 53.175251
    },
    {
        "id": 2754696,
        "name": "Gemeente Heemskerk",
        "lon": 4.65386,
        "lat": 52.509449
    },
    {
        "id": 2754680,
        "name": "Gemeente Heerde",
        "lon": 6.03889,
        "lat": 52.388329
    },
    {
        "id": 2754668,
        "name": "Gemeente Heerenveen",
        "lon": 5.93333,
        "lat": 52.950001
    },
    {
        "id": 2754658,
        "name": "Gemeente Heerhugowaard",
        "lon": 4.83333,
        "lat": 52.666672
    },
    {
        "id": 2754651,
        "name": "Gemeente Heerlen",
        "lon": 5.96667,
        "lat": 50.883331
    },
    {
        "id": 2754515,
        "name": "Gemeente Heiloo",
        "lon": 4.7,
        "lat": 52.599998
    },
    {
        "id": 2754453,
        "name": "Gemeente Hellevoetsluis",
        "lon": 4.13333,
        "lat": 51.833328
    },
    {
        "id": 2754446,
        "name": "Gemeente Helmond",
        "lon": 5.65,
        "lat": 51.466671
    },
    {
        "id": 2754407,
        "name": "Gemeente Hendrik-Ido-Ambacht",
        "lon": 4.63333,
        "lat": 51.833328
    },
    {
        "id": 2754392,
        "name": "Gemeente Hengelo",
        "lon": 6.78333,
        "lat": 52.25
    },
    {
        "id": 2754072,
        "name": "Gemeente Hillegom",
        "lon": 4.58333,
        "lat": 52.283329
    },
    {
        "id": 2754065,
        "name": "Gemeente Hilvarenbeek",
        "lon": 5.13333,
        "lat": 51.48333
    },
    {
        "id": 2754063,
        "name": "Gemeente Hilversum",
        "lon": 5.16667,
        "lat": 52.216671
    },
    {
        "id": 2753718,
        "name": "Gemeente Hoogeveen",
        "lon": 6.58333,
        "lat": 52.683331
    },
    {
        "id": 2753705,
        "name": "Gemeente Hoogezand-Sappemeer",
        "lon": 6.75,
        "lat": 53.150002
    },
    {
        "id": 2753635,
        "name": "Gemeente Hoorn",
        "lon": 5.05779,
        "lat": 52.64312
    },
    {
        "id": 6544233,
        "name": "Gemeente Horst aan de Maas",
        "lon": 6.10254,
        "lat": 51.459309
    },
    {
        "id": 2753556,
        "name": "Gemeente Houten",
        "lon": 5.16941,
        "lat": 52.026829
    },
    {
        "id": 2753467,
        "name": "Gemeente Huizen",
        "lon": 5.23333,
        "lat": 52.283329
    },
    {
        "id": 2753437,
        "name": "Gemeente Hulst",
        "lon": 4.0778,
        "lat": 51.312321
    },
    {
        "id": 2753354,
        "name": "Gemeente IJsselstein",
        "lon": 5.03333,
        "lat": 52.01667
    },
    {
        "id": 2753104,
        "name": "Gemeente Kampen",
        "lon": 5.9,
        "lat": 52.549999
    },
    {
        "id": 2753012,
        "name": "Gemeente Katwijk",
        "lon": 4.4,
        "lat": 52.200001
    },
    {
        "id": 2752922,
        "name": "Gemeente Kerkrade",
        "lon": 6.06667,
        "lat": 50.866669
    },
    {
        "id": 6544220,
        "name": "Gemeente Koggenland",
        "lon": 4.94909,
        "lat": 52.641628
    },
    {
        "id": 2752263,
        "name": "Gemeente Krimpen aan den IJssel",
        "lon": 4.58819,
        "lat": 51.914581
    },
    {
        "id": 2751962,
        "name": "Gemeente Langedijk",
        "lon": 4.8,
        "lat": 52.700001
    },
    {
        "id": 6544291,
        "name": "Gemeente Lansingerland",
        "lon": 4.51088,
        "lat": 52.003891
    },
    {
        "id": 2751833,
        "name": "Gemeente Leek",
        "lon": 6.3771,
        "lat": 53.155609
    },
    {
        "id": 2751807,
        "name": "Gemeente Leerdam",
        "lon": 5.08333,
        "lat": 51.883331
    },
    {
        "id": 2751791,
        "name": "Gemeente Leeuwarden",
        "lon": 5.78333,
        "lat": 53.183331
    },
    {
        "id": 2751790,
        "name": "Gemeente Leeuwarderadeel",
        "lon": 5.75877,
        "lat": 53.26067
    },
    {
        "id": 2751772,
        "name": "Gemeente Leiden",
        "lon": 4.48333,
        "lat": 52.150002
    },
    {
        "id": 2751770,
        "name": "Gemeente Leiderdorp",
        "lon": 4.54318,
        "lat": 52.15707
    },
    {
        "id": 6544252,
        "name": "Gemeente Leidschendam-Voorburg",
        "lon": 4.40139,
        "lat": 52.078331
    },
    {
        "id": 2751737,
        "name": "Gemeente Lelystad",
        "lon": 5.48333,
        "lat": 52.466671
    },
    {
        "id": 2751721,
        "name": "Gemeente Lemsterland",
        "lon": 5.7623,
        "lat": 52.853161
    },
    {
        "id": 2751688,
        "name": "Gemeente Leusden",
        "lon": 5.41667,
        "lat": 52.133331
    },
    {
        "id": 6544270,
        "name": "Gemeente Liesveld",
        "lon": 4.83452,
        "lat": 51.926788
    },
    {
        "id": 6544236,
        "name": "Gemeente Lingewaard",
        "lon": 5.94577,
        "lat": 51.89558
    },
    {
        "id": 2751546,
        "name": "Gemeente Lisse",
        "lon": 4.55,
        "lat": 52.25
    },
    {
        "id": 6544300,
        "name": "Gemeente Littenseradiel",
        "lon": 5.58839,
        "lat": 53.108608
    },
    {
        "id": 2751536,
        "name": "Gemeente Lochem",
        "lon": 6.41667,
        "lat": 52.150002
    },
    {
        "id": 2751455,
        "name": "Gemeente Loon op Zand",
        "lon": 5.05043,
        "lat": 51.638779
    },
    {
        "id": 2751435,
        "name": "Gemeente Lopik",
        "lon": 4.93333,
        "lat": 51.966671
    },
    {
        "id": 2751423,
        "name": "Gemeente Losser",
        "lon": 7,
        "lat": 52.25
    },
    {
        "id": 2751284,
        "name": "Gemeente Maassluis",
        "lon": 4.25,
        "lat": 51.916672
    },
    {
        "id": 2751282,
        "name": "Gemeente Maastricht",
        "lon": 5.7,
        "lat": 50.849998
    },
    {
        "id": 2751036,
        "name": "Gemeente Meerssen",
        "lon": 5.75,
        "lat": 50.883331
    },
    {
        "id": 2750946,
        "name": "Gemeente Meppel",
        "lon": 6.23333,
        "lat": 52.683331
    },
    {
        "id": 2750894,
        "name": "Gemeente Middelburg",
        "lon": 3.6561,
        "lat": 51.496799
    },
    {
        "id": 2750883,
        "name": "Gemeente Middelharnis",
        "lon": 4.15,
        "lat": 51.75
    },
    {
        "id": 6544297,
        "name": "Gemeente Midden-Drenthe",
        "lon": 6.5384,
        "lat": 52.867161
    },
    {
        "id": 6544256,
        "name": "Gemeente Montferland",
        "lon": 6.21333,
        "lat": 51.91925
    },
    {
        "id": 2750520,
        "name": "Gemeente Naarden",
        "lon": 5.15,
        "lat": 52.283329
    },
    {
        "id": 6544269,
        "name": "Gemeente Neder-Betuwe",
        "lon": 5.57147,
        "lat": 51.914421
    },
    {
        "id": 2750466,
        "name": "Gemeente Nederweert",
        "lon": 5.73333,
        "lat": 51.283329
    },
    {
        "id": 2750395,
        "name": "Gemeente Niedorp",
        "lon": 4.88333,
        "lat": 52.73333
    },
    {
        "id": 2750324,
        "name": "Gemeente Nieuwegein",
        "lon": 5.08333,
        "lat": 52.033329
    },
    {
        "id": 2750064,
        "name": "Gemeente Nijkerk",
        "lon": 5.483,
        "lat": 52.216999
    },
    {
        "id": 2750052,
        "name": "Gemeente Nijmegen",
        "lon": 5.85,
        "lat": 51.833328
    },
    {
        "id": 6544287,
        "name": "Gemeente Noordenveld",
        "lon": 6.44622,
        "lat": 53.114941
    },
    {
        "id": 2749851,
        "name": "Gemeente Noordoostpolder",
        "lon": 5.75,
        "lat": 52.700001
    },
    {
        "id": 2749814,
        "name": "Gemeente Noordwijk",
        "lon": 4.43333,
        "lat": 52.23333
    },
    {
        "id": 2749810,
        "name": "Gemeente Noordwijkerhout",
        "lon": 4.48333,
        "lat": 52.25
    },
    {
        "id": 2749779,
        "name": "Gemeente Nuenen, Gerwen en Nederwetten",
        "lon": 5.53333,
        "lat": 51.466671
    },
    {
        "id": 2749754,
        "name": "Gemeente Nunspeet",
        "lon": 5.76667,
        "lat": 52.366669
    },
    {
        "id": 2749752,
        "name": "Gemeente Nuth",
        "lon": 5.86667,
        "lat": 50.916672
    },
    {
        "id": 2749722,
        "name": "Gemeente Oegstgeest",
        "lon": 4.46676,
        "lat": 52.18256
    },
    {
        "id": 2749679,
        "name": "Gemeente Oisterwijk",
        "lon": 5.18333,
        "lat": 51.566669
    },
    {
        "id": 2749667,
        "name": "Gemeente Oldebroek",
        "lon": 5.90086,
        "lat": 52.445019
    },
    {
        "id": 2749643,
        "name": "Gemeente Oldenzaal",
        "lon": 6.93333,
        "lat": 52.299999
    },
    {
        "id": 2749611,
        "name": "Gemeente Ommen",
        "lon": 6.5,
        "lat": 52.533329
    },
    {
        "id": 6544298,
        "name": "Gemeente Onderbanken",
        "lon": 5.95781,
        "lat": 50.97031
    },
    {
        "id": 2749447,
        "name": "Gemeente Oosterhout",
        "lon": 4.86791,
        "lat": 51.639641
    },
    {
        "id": 2749233,
        "name": "Gemeente Oss",
        "lon": 5.53333,
        "lat": 51.75
    },
    {
        "id": 2749181,
        "name": "Gemeente Oud-Beijerland",
        "lon": 4.4,
        "lat": 51.816669
    },
    {
        "id": 6544276,
        "name": "Gemeente Overbetuwe",
        "lon": 5.78686,
        "lat": 51.91843
    },
    {
        "id": 2748728,
        "name": "Gemeente Papendrecht",
        "lon": 4.69125,
        "lat": 51.831749
    },
    {
        "id": 6544221,
        "name": "Gemeente Pijnacker-Nootdorp",
        "lon": 4.41944,
        "lat": 52.02615
    },
    {
        "id": 2748412,
        "name": "Gemeente Purmerend",
        "lon": 4.95243,
        "lat": 52.50515
    },
    {
        "id": 2748391,
        "name": "Gemeente Putten",
        "lon": 5.6,
        "lat": 52.25
    },
    {
        "id": 2748370,
        "name": "Gemeente Raalte",
        "lon": 6.26667,
        "lat": 52.383331
    },
    {
        "id": 2748200,
        "name": "Gemeente Rheden",
        "lon": 6.05,
        "lat": 52.01667
    },
    {
        "id": 2748184,
        "name": "Gemeente Rhenen",
        "lon": 5.57058,
        "lat": 51.96151
    },
    {
        "id": 2748171,
        "name": "Gemeente Ridderkerk",
        "lon": 4.6,
        "lat": 51.866669
    },
    {
        "id": 6544273,
        "name": "Gemeente Rijnwoude",
        "lon": 4.58788,
        "lat": 52.102348
    },
    {
        "id": 2748075,
        "name": "Gemeente Rijswijk",
        "lon": 4.31667,
        "lat": 52.033329
    },
    {
        "id": 6544264,
        "name": "Gemeente Roerdalen",
        "lon": 6.03542,
        "lat": 51.134918
    },
    {
        "id": 2747999,
        "name": "Gemeente Roermond",
        "lon": 5.98333,
        "lat": 51.183331
    },
    {
        "id": 2747890,
        "name": "Gemeente Rotterdam",
        "lon": 4.46667,
        "lat": 51.916672
    },
    {
        "id": 2747868,
        "name": "Gemeente Rozenburg",
        "lon": 4.22711,
        "lat": 51.918892
    },
    {
        "id": 2747857,
        "name": "Gemeente Rucphen",
        "lon": 4.56586,
        "lat": 51.523571
    },
    {
        "id": 2747719,
        "name": "Gemeente Schagen",
        "lon": 4.78333,
        "lat": 52.783329
    },
    {
        "id": 2747595,
        "name": "Gemeente Schiedam",
        "lon": 4.38333,
        "lat": 51.916672
    },
    {
        "id": 2747583,
        "name": "Gemeente Schijndel",
        "lon": 5.43333,
        "lat": 51.616669
    },
    {
        "id": 2747311,
        "name": "Gemeente Simpelveld",
        "lon": 5.96667,
        "lat": 50.833328
    },
    {
        "id": 2747226,
        "name": "Gemeente Sint-Oedenrode",
        "lon": 5.45,
        "lat": 51.549999
    },
    {
        "id": 6544255,
        "name": "Gemeente Sittard-Geleen",
        "lon": 5.82288,
        "lat": 51.010738
    },
    {
        "id": 2747168,
        "name": "Gemeente Sliedrecht",
        "lon": 4.76667,
        "lat": 51.816669
    },
    {
        "id": 2747091,
        "name": "Gemeente Smallingerland",
        "lon": 6.03333,
        "lat": 53.116669
    },
    {
        "id": 2747033,
        "name": "Gemeente Soest",
        "lon": 5.28333,
        "lat": 52.116669
    },
    {
        "id": 2747020,
        "name": "Gemeente Someren",
        "lon": 5.71049,
        "lat": 51.382332
    },
    {
        "id": 2746931,
        "name": "Gemeente Spijkenisse",
        "lon": 4.31667,
        "lat": 51.833328
    },
    {
        "id": 2746859,
        "name": "Gemeente Stadskanaal",
        "lon": 6.95,
        "lat": 52.98333
    },
    {
        "id": 2746837,
        "name": "Gemeente Staphorst",
        "lon": 6.26667,
        "lat": 52.616669
    },
    {
        "id": 2746801,
        "name": "Gemeente Steenbergen",
        "lon": 4.32077,
        "lat": 51.600811
    },
    {
        "id": 6544235,
        "name": "Gemeente Steenwijkerland",
        "lon": 6.04028,
        "lat": 52.755871
    },
    {
        "id": 2746607,
        "name": "Gemeente Strijen",
        "lon": 4.55,
        "lat": 51.73333
    },
    {
        "id": 2746421,
        "name": "Gemeente Terneuzen",
        "lon": 3.83922,
        "lat": 51.280861
    },
    {
        "id": 2746383,
        "name": "Gemeente Texel",
        "lon": 4.8,
        "lat": 53.083328
    },
    {
        "id": 6544293,
        "name": "Gemeente Teylingen",
        "lon": 4.50648,
        "lat": 52.215561
    },
    {
        "id": 2746350,
        "name": "Gemeente Tholen",
        "lon": 4.1239,
        "lat": 51.57708
    },
    {
        "id": 2746330,
        "name": "Gemeente Tiel",
        "lon": 5.43333,
        "lat": 51.883331
    },
    {
        "id": 2746300,
        "name": "Gemeente Tilburg",
        "lon": 5.06667,
        "lat": 51.549999
    },
    {
        "id": 2746132,
        "name": "Gemeente Tubbergen",
        "lon": 6.76667,
        "lat": 52.400002
    },
    {
        "id": 6544245,
        "name": "Gemeente Twenterand",
        "lon": 6.56122,
        "lat": 52.449741
    },
    {
        "id": 6544282,
        "name": "Gemeente Tynaarlo",
        "lon": 6.60271,
        "lat": 53.104172
    },
    {
        "id": 2746004,
        "name": "Gemeente Uden",
        "lon": 5.61258,
        "lat": 51.656818
    },
    {
        "id": 2745972,
        "name": "Gemeente Uithoorn",
        "lon": 4.83072,
        "lat": 52.23999
    },
    {
        "id": 2745931,
        "name": "Gemeente Urk",
        "lon": 5.62371,
        "lat": 52.665852
    },
    {
        "id": 2745911,
        "name": "Gemeente Utrecht",
        "lon": 5.03708,
        "lat": 52.096748
    },
    {
        "id": 2756685,
        "name": "Gemeente Utrechtse Heuvelrug",
        "lon": 5.35738,
        "lat": 52.034859
    },
    {
        "id": 2745904,
        "name": "Gemeente Vaals",
        "lon": 6.01667,
        "lat": 50.76667
    },
    {
        "id": 2745859,
        "name": "Gemeente Valkenswaard",
        "lon": 5.45,
        "lat": 51.349998
    },
    {
        "id": 2745782,
        "name": "Gemeente Veendam",
        "lon": 6.86667,
        "lat": 53.099998
    },
    {
        "id": 2745773,
        "name": "Gemeente Veenendaal",
        "lon": 5.55,
        "lat": 52.01667
    },
    {
        "id": 2745738,
        "name": "Gemeente Veere",
        "lon": 3.55688,
        "lat": 51.539021
    },
    {
        "id": 2745725,
        "name": "Gemeente Veghel",
        "lon": 5.53333,
        "lat": 51.599998
    },
    {
        "id": 2745704,
        "name": "Gemeente Veldhoven",
        "lon": 5.4,
        "lat": 51.400002
    },
    {
        "id": 2745675,
        "name": "Gemeente Velsen",
        "lon": 4.63211,
        "lat": 52.45182
    },
    {
        "id": 2745640,
        "name": "Gemeente Venlo",
        "lon": 6.16667,
        "lat": 51.366669
    },
    {
        "id": 2745633,
        "name": "Gemeente Venray",
        "lon": 5.96667,
        "lat": 51.51667
    },
    {
        "id": 2745579,
        "name": "Gemeente Vianen",
        "lon": 5.08333,
        "lat": 51.98333
    },
    {
        "id": 2745466,
        "name": "Gemeente Vlaardingen",
        "lon": 4.33333,
        "lat": 51.900002
    },
    {
        "id": 2745460,
        "name": "Gemeente Vlagtwedde",
        "lon": 7.1,
        "lat": 53.01667
    },
    {
        "id": 2745391,
        "name": "Gemeente Vlissingen",
        "lon": 3.62127,
        "lat": 51.457741
    },
    {
        "id": 2745386,
        "name": "Gemeente Vlist",
        "lon": 4.78557,
        "lat": 51.98362
    },
    {
        "id": 2745300,
        "name": "Gemeente Voorschoten",
        "lon": 4.43333,
        "lat": 52.116669
    },
    {
        "id": 2745295,
        "name": "Gemeente Voorst",
        "lon": 6.13333,
        "lat": 52.166672
    },
    {
        "id": 2745153,
        "name": "Gemeente Vught",
        "lon": 5.28333,
        "lat": 51.650002
    },
    {
        "id": 2745126,
        "name": "Gemeente Waalre",
        "lon": 5.43333,
        "lat": 51.383331
    },
    {
        "id": 2745122,
        "name": "Gemeente Waalwijk",
        "lon": 5.01721,
        "lat": 51.689701
    },
    {
        "id": 2745095,
        "name": "Gemeente Waddinxveen",
        "lon": 4.65,
        "lat": 52.033329
    },
    {
        "id": 2745087,
        "name": "Gemeente Wageningen",
        "lon": 5.66667,
        "lat": 51.966671
    },
    {
        "id": 2744989,
        "name": "Gemeente Wassenaar",
        "lon": 4.4,
        "lat": 52.133331
    },
    {
        "id": 2758257,
        "name": "Gemeente Waterland",
        "lon": 5.01371,
        "lat": 52.437599
    },
    {
        "id": 2744910,
        "name": "Gemeente Weert",
        "lon": 5.7,
        "lat": 51.25
    },
    {
        "id": 2744903,
        "name": "Gemeente Weesp",
        "lon": 5.04152,
        "lat": 52.305752
    },
    {
        "id": 2744826,
        "name": "Gemeente Werkendam",
        "lon": 4.88333,
        "lat": 51.799999
    },
    {
        "id": 2744819,
        "name": "Gemeente Wervershoof",
        "lon": 5.13333,
        "lat": 52.716671
    },
    {
        "id": 6544265,
        "name": "Gemeente West Maas en Waal",
        "lon": 5.51074,
        "lat": 51.84494
    },
    {
        "id": 2744674,
        "name": "Gemeente Westervoort",
        "lon": 5.96667,
        "lat": 51.950001
    },
    {
        "id": 6544261,
        "name": "Gemeente Westland",
        "lon": 4.22729,
        "lat": 51.996712
    },
    {
        "id": 2744609,
        "name": "Gemeente Weststellingwerf",
        "lon": 6,
        "lat": 52.883331
    },
    {
        "id": 2744548,
        "name": "Gemeente Wierden",
        "lon": 6.58333,
        "lat": 52.349998
    },
    {
        "id": 2744540,
        "name": "Gemeente Wieringen",
        "lon": 4.95,
        "lat": 52.900002
    },
    {
        "id": 2744537,
        "name": "Gemeente Wieringermeer",
        "lon": 5.01667,
        "lat": 52.849998
    },
    {
        "id": 2744513,
        "name": "Gemeente Wijchen",
        "lon": 5.71667,
        "lat": 51.799999
    },
    {
        "id": 2744482,
        "name": "Gemeente Wijk bij Duurstede",
        "lon": 5.33661,
        "lat": 51.974522
    },
    {
        "id": 2744331,
        "name": "Gemeente Winterswijk",
        "lon": 6.71667,
        "lat": 51.966671
    },
    {
        "id": 2744256,
        "name": "Gemeente Woensdrecht",
        "lon": 4.33695,
        "lat": 51.41634
    },
    {
        "id": 2744247,
        "name": "Gemeente Woerden",
        "lon": 4.88333,
        "lat": 52.083328
    },
    {
        "id": 2744113,
        "name": "Gemeente Zaanstad",
        "lon": 4.81253,
        "lat": 52.453079
    },
    {
        "id": 2744101,
        "name": "Gemeente Zaltbommel",
        "lon": 5.25,
        "lat": 51.799999
    },
    {
        "id": 2744040,
        "name": "Gemeente Zandvoort",
        "lon": 4.53333,
        "lat": 52.366669
    },
    {
        "id": 2743996,
        "name": "Gemeente Zeewolde",
        "lon": 5.48333,
        "lat": 52.333328
    },
    {
        "id": 2743976,
        "name": "Gemeente Zeist",
        "lon": 5.23275,
        "lat": 52.08847
    },
    {
        "id": 2743948,
        "name": "Gemeente Zevenaar",
        "lon": 6.06667,
        "lat": 51.916672
    },
    {
        "id": 2743882,
        "name": "Gemeente Zijpe",
        "lon": 4.75,
        "lat": 52.799999
    },
    {
        "id": 2743855,
        "name": "Gemeente Zoetermeer",
        "lon": 4.46667,
        "lat": 52.049999
    },
    {
        "id": 7535501,
        "name": "Gemeente Zuidplas",
        "lon": 4.61048,
        "lat": 52.015739
    },
    {
        "id": 2743618,
        "name": "Gemeente Zundert",
        "lon": 4.6418,
        "lat": 51.473518
    },
    {
        "id": 2743607,
        "name": "Gemeente Zutphen",
        "lon": 6.2,
        "lat": 52.133331
    },
    {
        "id": 2743492,
        "name": "Gemeente Zwijndrecht",
        "lon": 4.61258,
        "lat": 51.82399
    },
    {
        "id": 2743476,
        "name": "Gemeente Zwolle",
        "lon": 6.09359,
        "lat": 52.512642
    },
    {
        "id": 2755601,
        "name": "Genderen",
        "lon": 5.0875,
        "lat": 51.735828
    },
    {
        "id": 2755599,
        "name": "Gendringen",
        "lon": 6.37639,
        "lat": 51.873329
    },
    {
        "id": 2755584,
        "name": "Gennep",
        "lon": 5.97361,
        "lat": 51.69833
    },
    {
        "id": 2755533,
        "name": "Giessenburg",
        "lon": 4.89028,
        "lat": 51.85083
    },
    {
        "id": 2755517,
        "name": "Giethoorn",
        "lon": 6.07917,
        "lat": 52.740002
    },
    {
        "id": 2755498,
        "name": "Ginneken",
        "lon": 4.7931,
        "lat": 51.565929
    },
    {
        "id": 2755485,
        "name": "Goedereede",
        "lon": 3.98056,
        "lat": 51.817501
    },
    {
        "id": 2755476,
        "name": "Goes",
        "lon": 3.88889,
        "lat": 51.504169
    },
    {
        "id": 2755464,
        "name": "Goirle",
        "lon": 5.06667,
        "lat": 51.520828
    },
    {
        "id": 2755449,
        "name": "Goor",
        "lon": 6.58611,
        "lat": 52.23333
    },
    {
        "id": 2755434,
        "name": "Gorinchem",
        "lon": 4.97243,
        "lat": 51.836521
    },
    {
        "id": 2755429,
        "name": "Gorredijk",
        "lon": 6.06402,
        "lat": 53.006592
    },
    {
        "id": 2755428,
        "name": "Gorssel",
        "lon": 6.20139,
        "lat": 52.201672
    },
    {
        "id": 2755420,
        "name": "Gouda",
        "lon": 4.70833,
        "lat": 52.01667
    },
    {
        "id": 2755399,
        "name": "Goutum",
        "lon": 5.8037,
        "lat": 53.177341
    },
    {
        "id": 2755358,
        "name": "Grave",
        "lon": 5.73882,
        "lat": 51.759022
    },
    {
        "id": 2755348,
        "name": "Greffelkamp",
        "lon": 6.12083,
        "lat": 51.952499
    },
    {
        "id": 2755317,
        "name": "Grijpskerk",
        "lon": 6.30833,
        "lat": 53.262501
    },
    {
        "id": 2755281,
        "name": "Groenlo",
        "lon": 6.61111,
        "lat": 52.041672
    },
    {
        "id": 6948947,
        "name": "Groenswaard",
        "lon": 4.64541,
        "lat": 52.05154
    },
    {
        "id": 2755272,
        "name": "Groesbeek",
        "lon": 5.93611,
        "lat": 51.776669
    },
    {
        "id": 2755251,
        "name": "Groningen",
        "lon": 6.56667,
        "lat": 53.21917
    },
    {
        "id": 2755200,
        "name": "Groote Haar",
        "lon": 4.95,
        "lat": 51.849998
    },
    {
        "id": 2755204,
        "name": "Grootegast",
        "lon": 6.27361,
        "lat": 53.212502
    },
    {
        "id": 2755052,
        "name": "Grou",
        "lon": 5.83333,
        "lat": 53.099998
    },
    {
        "id": 7870372,
        "name": "Gulden Bodem",
        "lon": 5.8908,
        "lat": 51.994282
    },
    {
        "id": 2755542,
        "name": "Gytsjerk",
        "lon": 5.89502,
        "lat": 53.242931
    },
    {
        "id": 2755033,
        "name": "Haagse Beemden",
        "lon": 4.7481,
        "lat": 51.611031
    },
    {
        "id": 2755030,
        "name": "Haaksbergen",
        "lon": 6.73889,
        "lat": 52.15667
    },
    {
        "id": 2755023,
        "name": "Haamstede",
        "lon": 3.74299,
        "lat": 51.696819
    },
    {
        "id": 2755019,
        "name": "Haansberg",
        "lon": 4.93651,
        "lat": 51.57851
    },
    {
        "id": 2755009,
        "name": "Haaren",
        "lon": 5.22222,
        "lat": 51.602501
    },
    {
        "id": 2755003,
        "name": "Haarlem",
        "lon": 4.63683,
        "lat": 52.38084
    },
    {
        "id": 2754978,
        "name": "Haastrecht",
        "lon": 4.77639,
        "lat": 52.00074
    },
    {
        "id": 2754975,
        "name": "Haelen",
        "lon": 5.95694,
        "lat": 51.235828
    },
    {
        "id": 2754930,
        "name": "Hallum",
        "lon": 5.78379,
        "lat": 53.306568
    },
    {
        "id": 2754922,
        "name": "Halsteren",
        "lon": 4.26785,
        "lat": 51.528339
    },
    {
        "id": 2754861,
        "name": "Hardenberg",
        "lon": 6.61944,
        "lat": 52.575829
    },
    {
        "id": 2754848,
        "name": "Harderwijk",
        "lon": 5.62083,
        "lat": 52.341671
    },
    {
        "id": 2754841,
        "name": "Haren",
        "lon": 6.63037,
        "lat": 53.17667
    },
    {
        "id": 2754837,
        "name": "Harenkarspel",
        "lon": 4.77682,
        "lat": 52.734161
    },
    {
        "id": 2754835,
        "name": "Harfsen",
        "lon": 6.29722,
        "lat": 52.2075
    },
    {
        "id": 2754821,
        "name": "Harkema",
        "lon": 6.13333,
        "lat": 53.183331
    },
    {
        "id": 2754817,
        "name": "Harlingen",
        "lon": 5.42244,
        "lat": 53.17477
    },
    {
        "id": 2754808,
        "name": "Harreveld",
        "lon": 6.51667,
        "lat": 51.977501
    },
    {
        "id": 2754804,
        "name": "Harskamp",
        "lon": 5.75278,
        "lat": 52.130001
    },
    {
        "id": 2754788,
        "name": "Haspel",
        "lon": 5.51944,
        "lat": 52.03167
    },
    {
        "id": 2754779,
        "name": "Hasselt",
        "lon": 6.09527,
        "lat": 52.59267
    },
    {
        "id": 2754768,
        "name": "Hattem",
        "lon": 6.06389,
        "lat": 52.474998
    },
    {
        "id": 2754752,
        "name": "Havelte",
        "lon": 6.24015,
        "lat": 52.769409
    },
    {
        "id": 2754724,
        "name": "Hazerswoude-Dorp",
        "lon": 4.58611,
        "lat": 52.096668
    },
    {
        "id": 2754719,
        "name": "Hedel",
        "lon": 5.26134,
        "lat": 51.74802
    },
    {
        "id": 2754712,
        "name": "Heeg",
        "lon": 5.61075,
        "lat": 52.968601
    },
    {
        "id": 2754703,
        "name": "Heelsum",
        "lon": 5.75833,
        "lat": 51.984169
    },
    {
        "id": 2754697,
        "name": "Heemskerk",
        "lon": 4.67165,
        "lat": 52.511082
    },
    {
        "id": 2754692,
        "name": "Heemstede",
        "lon": 4.62301,
        "lat": 52.349918
    },
    {
        "id": 2754682,
        "name": "Heer",
        "lon": 5.72989,
        "lat": 50.83836
    },
    {
        "id": 2754681,
        "name": "Heerde",
        "lon": 6.04016,
        "lat": 52.38723
    },
    {
        "id": 2754669,
        "name": "Heerenveen",
        "lon": 5.91854,
        "lat": 52.95929
    },
    {
        "id": 2754662,
        "name": "Heerewaarden",
        "lon": 5.393,
        "lat": 51.817692
    },
    {
        "id": 2754659,
        "name": "Heerhugowaard",
        "lon": 4.84862,
        "lat": 52.67144
    },
    {
        "id": 2754656,
        "name": "Heerjansdam",
        "lon": 4.56389,
        "lat": 51.835831
    },
    {
        "id": 2754652,
        "name": "Heerlen",
        "lon": 5.98154,
        "lat": 50.883652
    },
    {
        "id": 2754635,
        "name": "Heesch",
        "lon": 5.52672,
        "lat": 51.73362
    },
    {
        "id": 2754618,
        "name": "Heeze",
        "lon": 5.57145,
        "lat": 51.382801
    },
    {
        "id": 2754552,
        "name": "Heijplaat",
        "lon": 4.42083,
        "lat": 51.89333
    },
    {
        "id": 2754545,
        "name": "Heikant",
        "lon": 5.29028,
        "lat": 51.39333
    },
    {
        "id": 2754516,
        "name": "Heiloo",
        "lon": 4.68815,
        "lat": 52.60252
    },
    {
        "id": 2754507,
        "name": "Heinenoord",
        "lon": 4.47659,
        "lat": 51.826019
    },
    {
        "id": 2754502,
        "name": "Heino",
        "lon": 6.23282,
        "lat": 52.436611
    },
    {
        "id": 2754491,
        "name": "Hekelingen",
        "lon": 4.34444,
        "lat": 51.825829
    },
    {
        "id": 2754454,
        "name": "Hellevoetsluis",
        "lon": 4.13333,
        "lat": 51.833328
    },
    {
        "id": 2754447,
        "name": "Helmond",
        "lon": 5.66111,
        "lat": 51.48167
    },
    {
        "id": 2754408,
        "name": "Hendrik-Ido-Ambacht",
        "lon": 4.63889,
        "lat": 51.84417
    },
    {
        "id": 2754394,
        "name": "Hengelo",
        "lon": 6.79306,
        "lat": 52.265831
    },
    {
        "id": 2754389,
        "name": "Hengevelde",
        "lon": 6.63611,
        "lat": 52.199169
    },
    {
        "id": 2754386,
        "name": "Hengstdal",
        "lon": 5.88333,
        "lat": 51.833328
    },
    {
        "id": 2754352,
        "name": "Herkenbosch",
        "lon": 6.06389,
        "lat": 51.153332
    },
    {
        "id": 2754322,
        "name": "Herveld",
        "lon": 5.75417,
        "lat": 51.90583
    },
    {
        "id": 2754273,
        "name": "Het Hazebos",
        "lon": 6.60543,
        "lat": 52.564899
    },
    {
        "id": 2754287,
        "name": "Heteren",
        "lon": 5.75556,
        "lat": 51.956669
    },
    {
        "id": 2754111,
        "name": "Heythuysen",
        "lon": 5.89861,
        "lat": 51.25
    },
    {
        "id": 2754073,
        "name": "Hillegom",
        "lon": 4.58333,
        "lat": 52.290829
    },
    {
        "id": 2754066,
        "name": "Hilvarenbeek",
        "lon": 5.1375,
        "lat": 51.485828
    },
    {
        "id": 2754064,
        "name": "Hilversum",
        "lon": 5.17639,
        "lat": 52.223331
    },
    {
        "id": 6697850,
        "name": "Hoek",
        "lon": 5.80192,
        "lat": 53.204552
    },
    {
        "id": 2754007,
        "name": "Hoek van Holland",
        "lon": 4.13333,
        "lat": 51.977501
    },
    {
        "id": 2753996,
        "name": "Hoensbroek",
        "lon": 5.92528,
        "lat": 50.92387
    },
    {
        "id": 2753887,
        "name": "Hollum",
        "lon": 5.63805,
        "lat": 53.4394
    },
    {
        "id": 2753852,
        "name": "Holwerd",
        "lon": 5.90073,
        "lat": 53.368149
    },
    {
        "id": 2753806,
        "name": "Honselersdijk",
        "lon": 4.22441,
        "lat": 52.006649
    },
    {
        "id": 2753801,
        "name": "Hoofddorp",
        "lon": 4.68889,
        "lat": 52.302502
    },
    {
        "id": 2753719,
        "name": "Hoogeveen",
        "lon": 6.47639,
        "lat": 52.7225
    },
    {
        "id": 2753706,
        "name": "Hoogezand",
        "lon": 6.76111,
        "lat": 53.161671
    },
    {
        "id": 7870365,
        "name": "Hoogkamp",
        "lon": 5.88026,
        "lat": 51.9963
    },
    {
        "id": 2753686,
        "name": "Hoogland",
        "lon": 5.37361,
        "lat": 52.182499
    },
    {
        "id": 2753638,
        "name": "Hoorn",
        "lon": 5.05972,
        "lat": 52.642502
    },
    {
        "id": 2753587,
        "name": "Horst",
        "lon": 5.58194,
        "lat": 52.308331
    },
    {
        "id": 2753557,
        "name": "Houten",
        "lon": 5.16806,
        "lat": 52.028332
    },
    {
        "id": 2753548,
        "name": "Houthem",
        "lon": 5.79306,
        "lat": 50.872501
    },
    {
        "id": 2753468,
        "name": "Huizen",
        "lon": 5.24167,
        "lat": 52.299171
    },
    {
        "id": 2753470,
        "name": "Huizum",
        "lon": 5.81119,
        "lat": 53.1917
    },
    {
        "id": 2753439,
        "name": "Hulst",
        "lon": 4.05278,
        "lat": 51.279999
    },
    {
        "id": 2753516,
        "name": "Húns",
        "lon": 5.66572,
        "lat": 53.159409
    },
    {
        "id": 2754864,
        "name": "Hurdegaryp",
        "lon": 5.94137,
        "lat": 53.213329
    },
    {
        "id": 2753379,
        "name": "IJlst",
        "lon": 5.62312,
        "lat": 53.01009
    },
    {
        "id": 2753359,
        "name": "IJsselmonde",
        "lon": 4.55,
        "lat": 51.900002
    },
    {
        "id": 2753355,
        "name": "IJsselstein",
        "lon": 5.04306,
        "lat": 52.02
    },
    {
        "id": 2753256,
        "name": "Jelsum",
        "lon": 5.78237,
        "lat": 53.234699
    },
    {
        "id": 2753307,
        "name": "Jirnsum",
        "lon": 5.79254,
        "lat": 53.07753
    },
    {
        "id": 2753201,
        "name": "Jordaan",
        "lon": 4.88059,
        "lat": 52.37439
    },
    {
        "id": 2753197,
        "name": "Joure",
        "lon": 5.80301,
        "lat": 52.965698
    },
    {
        "id": 6692371,
        "name": "Jubbega",
        "lon": 6.12183,
        "lat": 53.00396
    },
    {
        "id": 2753184,
        "name": "Julianadorp",
        "lon": 4.74028,
        "lat": 52.889999
    },
    {
        "id": 2753174,
        "name": "Jutphaas",
        "lon": 5.08333,
        "lat": 52.033329
    },
    {
        "id": 2753106,
        "name": "Kampen",
        "lon": 5.91111,
        "lat": 52.555
    },
    {
        "id": 2753040,
        "name": "Katerveer",
        "lon": 6.06944,
        "lat": 52.5
    },
    {
        "id": 2753011,
        "name": "Katwijk aan den Rijn",
        "lon": 4.42222,
        "lat": 52.194172
    },
    {
        "id": 2753010,
        "name": "Katwijk aan Zee",
        "lon": 4.39861,
        "lat": 52.203331
    },
    {
        "id": 2752969,
        "name": "Keldonk",
        "lon": 5.58472,
        "lat": 51.58667
    },
    {
        "id": 6929953,
        "name": "Kelpen-Oler",
        "lon": 5.82602,
        "lat": 51.21817
    },
    {
        "id": 2752923,
        "name": "Kerkrade",
        "lon": 6.0625,
        "lat": 50.865829
    },
    {
        "id": 2752899,
        "name": "Kesteren",
        "lon": 5.56944,
        "lat": 51.935001
    },
    {
        "id": 2750405,
        "name": "Kingdom of the Netherlands",
        "lon": 5.75,
        "lat": 52.5
    },
    {
        "id": 2752798,
        "name": "Klazienaveen",
        "lon": 6.99028,
        "lat": 52.724171
    },
    {
        "id": 2752646,
        "name": "Klimmen",
        "lon": 5.88056,
        "lat": 50.875832
    },
    {
        "id": 2752611,
        "name": "Kloosterzande",
        "lon": 4.01389,
        "lat": 51.370831
    },
    {
        "id": 2752600,
        "name": "Klundert",
        "lon": 4.53472,
        "lat": 51.665001
    },
    {
        "id": 2752547,
        "name": "Koewacht",
        "lon": 3.97361,
        "lat": 51.228329
    },
    {
        "id": 2752524,
        "name": "Kollum",
        "lon": 6.15293,
        "lat": 53.276951
    },
    {
        "id": 2752520,
        "name": "Kollumerzwaag",
        "lon": 6.07544,
        "lat": 53.262241
    },
    {
        "id": 2752492,
        "name": "Koningsbosch",
        "lon": 5.95833,
        "lat": 51.05167
    },
    {
        "id": 6544829,
        "name": "Koningshoeven",
        "lon": 5.1125,
        "lat": 51.549999
    },
    {
        "id": 2752444,
        "name": "Kootstertille",
        "lon": 6.09209,
        "lat": 53.212608
    },
    {
        "id": 2752441,
        "name": "Kootwijkerbroek",
        "lon": 5.66944,
        "lat": 52.150829
    },
    {
        "id": 2752420,
        "name": "Korrewegwijk",
        "lon": 6.56804,
        "lat": 53.232349
    },
    {
        "id": 2752409,
        "name": "Kortenhoef",
        "lon": 5.10694,
        "lat": 52.23917
    },
    {
        "id": 2752403,
        "name": "Korteven",
        "lon": 4.31753,
        "lat": 51.445229
    },
    {
        "id": 2752367,
        "name": "Koudum",
        "lon": 5.44834,
        "lat": 52.915508
    },
    {
        "id": 2752349,
        "name": "Kraaijenstein",
        "lon": 4.23333,
        "lat": 52.049999
    },
    {
        "id": 2752314,
        "name": "Kralingen",
        "lon": 4.50336,
        "lat": 51.926849
    },
    {
        "id": 2752300,
        "name": "Kranenburg",
        "lon": 6.35972,
        "lat": 52.10083
    },
    {
        "id": 2752264,
        "name": "Krimpen aan den IJssel",
        "lon": 4.60278,
        "lat": 51.916672
    },
    {
        "id": 2752260,
        "name": "Krispijn",
        "lon": 4.6607,
        "lat": 51.80167
    },
    {
        "id": 2752240,
        "name": "Krommenie",
        "lon": 4.7625,
        "lat": 52.499168
    },
    {
        "id": 2752192,
        "name": "Kruisland",
        "lon": 4.40972,
        "lat": 51.569172
    },
    {
        "id": 2752187,
        "name": "Kruisschot",
        "lon": 5.68472,
        "lat": 51.486671
    },
    {
        "id": 2752151,
        "name": "Kunrade",
        "lon": 5.93107,
        "lat": 50.877689
    },
    {
        "id": 2752130,
        "name": "Kwintsheul",
        "lon": 4.25556,
        "lat": 52.013329
    },
    {
        "id": 2752062,
        "name": "Ladysmith",
        "lon": 6.9,
        "lat": 53.333328
    },
    {
        "id": 6929985,
        "name": "Lakerlopen",
        "lon": 5.50106,
        "lat": 51.437908
    },
    {
        "id": 2751998,
        "name": "Lammerenburg",
        "lon": 3.55833,
        "lat": 51.466671
    },
    {
        "id": 2751980,
        "name": "Landsmeer",
        "lon": 4.91528,
        "lat": 52.430828
    },
    {
        "id": 2751924,
        "name": "Langerak",
        "lon": 4.87639,
        "lat": 51.931671
    },
    {
        "id": 2751874,
        "name": "Laren",
        "lon": 5.22778,
        "lat": 52.256672
    },
    {
        "id": 2751861,
        "name": "Laudermarke",
        "lon": 7.11528,
        "lat": 52.886669
    },
    {
        "id": 2751834,
        "name": "Leek",
        "lon": 6.37639,
        "lat": 53.162498
    },
    {
        "id": 2751813,
        "name": "Leens",
        "lon": 6.37917,
        "lat": 53.360001
    },
    {
        "id": 2751808,
        "name": "Leerdam",
        "lon": 5.09167,
        "lat": 51.89333
    },
    {
        "id": 2751801,
        "name": "Leersum",
        "lon": 5.42778,
        "lat": 52.011669
    },
    {
        "id": 2751793,
        "name": "Leesten",
        "lon": 6.23217,
        "lat": 52.127899
    },
    {
        "id": 2751792,
        "name": "Leeuwarden",
        "lon": 5.80859,
        "lat": 53.201389
    },
    {
        "id": 2751789,
        "name": "Leeuwen",
        "lon": 5.99862,
        "lat": 51.21032
    },
    {
        "id": 2751773,
        "name": "Leiden",
        "lon": 4.49306,
        "lat": 52.158329
    },
    {
        "id": 2751771,
        "name": "Leiderdorp",
        "lon": 4.52917,
        "lat": 52.158329
    },
    {
        "id": 2751750,
        "name": "Leimuiden",
        "lon": 4.66944,
        "lat": 52.224171
    },
    {
        "id": 2751738,
        "name": "Lelystad",
        "lon": 5.475,
        "lat": 52.508331
    },
    {
        "id": 2751729,
        "name": "Lemmer",
        "lon": 5.70912,
        "lat": 52.84618
    },
    {
        "id": 2751709,
        "name": "Lepelstraat",
        "lon": 4.27639,
        "lat": 51.548328
    },
    {
        "id": 2751687,
        "name": "Leusden",
        "lon": 5.43194,
        "lat": 52.1325
    },
    {
        "id": 2751651,
        "name": "Lichtenvoorde",
        "lon": 6.56667,
        "lat": 51.986671
    },
    {
        "id": 2751641,
        "name": "Lienden",
        "lon": 5.51806,
        "lat": 51.94833
    },
    {
        "id": 2751621,
        "name": "Liesveld",
        "lon": 4.83194,
        "lat": 51.932499
    },
    {
        "id": 2751599,
        "name": "Limbricht",
        "lon": 5.8375,
        "lat": 51.011669
    },
    {
        "id": 2751582,
        "name": "Lindenholt",
        "lon": 5.7934,
        "lat": 51.832699
    },
    {
        "id": 2751547,
        "name": "Lisse",
        "lon": 4.55694,
        "lat": 52.259998
    },
    {
        "id": 2751537,
        "name": "Lochem",
        "lon": 6.41111,
        "lat": 52.159168
    },
    {
        "id": 2751524,
        "name": "Loenen",
        "lon": 6.01944,
        "lat": 52.1175
    },
    {
        "id": 2751456,
        "name": "Loon op Zand",
        "lon": 5.075,
        "lat": 51.627499
    },
    {
        "id": 2751449,
        "name": "Loosbroek",
        "lon": 5.50694,
        "lat": 51.678329
    },
    {
        "id": 2751436,
        "name": "Lopik",
        "lon": 4.94861,
        "lat": 51.9725
    },
    {
        "id": 2751424,
        "name": "Losser",
        "lon": 7.00417,
        "lat": 52.26083
    },
    {
        "id": 6698635,
        "name": "Lunetten",
        "lon": 5.13474,
        "lat": 52.061779
    },
    {
        "id": 2751385,
        "name": "Lunteren",
        "lon": 5.62222,
        "lat": 52.084999
    },
    {
        "id": 2751320,
        "name": "Maarn",
        "lon": 5.37083,
        "lat": 52.064171
    },
    {
        "id": 2751318,
        "name": "Maarsbergen",
        "lon": 5.40556,
        "lat": 52.058331
    },
    {
        "id": 2751316,
        "name": "Maarssen",
        "lon": 5.04167,
        "lat": 52.139172
    },
    {
        "id": 2751303,
        "name": "Maasbracht",
        "lon": 5.88627,
        "lat": 51.13929
    },
    {
        "id": 2751301,
        "name": "Maasbree",
        "lon": 6.04861,
        "lat": 51.357498
    },
    {
        "id": 2751296,
        "name": "Maasdijk",
        "lon": 4.21389,
        "lat": 51.959171
    },
    {
        "id": 2751285,
        "name": "Maassluis",
        "lon": 4.25,
        "lat": 51.923328
    },
    {
        "id": 2751283,
        "name": "Maastricht",
        "lon": 5.68889,
        "lat": 50.848331
    },
    {
        "id": 2751264,
        "name": "Magele",
        "lon": 6.52083,
        "lat": 52.46917
    },
    {
        "id": 2751253,
        "name": "Makkum",
        "lon": 5.67946,
        "lat": 53.095131
    },
    {
        "id": 2751212,
        "name": "Mantgum",
        "lon": 5.71924,
        "lat": 53.128651
    },
    {
        "id": 2751199,
        "name": "Margraten",
        "lon": 5.82083,
        "lat": 50.820831
    },
    {
        "id": 2751193,
        "name": "Mariaheide",
        "lon": 5.58056,
        "lat": 51.633331
    },
    {
        "id": 2751180,
        "name": "Mariarade",
        "lon": 5.92738,
        "lat": 50.929062
    },
    {
        "id": 2751161,
        "name": "Markelo",
        "lon": 6.49861,
        "lat": 52.235001
    },
    {
        "id": 2752950,
        "name": "Marken",
        "lon": 5.10278,
        "lat": 52.458328
    },
    {
        "id": 2751129,
        "name": "Marrum",
        "lon": 5.80198,
        "lat": 53.322769
    },
    {
        "id": 2751122,
        "name": "Marsum",
        "lon": 5.72637,
        "lat": 53.210499
    },
    {
        "id": 6695503,
        "name": "Meerhoven",
        "lon": 5.41102,
        "lat": 51.442669
    },
    {
        "id": 2751037,
        "name": "Meerssen",
        "lon": 5.75,
        "lat": 50.887501
    },
    {
        "id": 2751024,
        "name": "Meerzicht",
        "lon": 4.46832,
        "lat": 52.057838
    },
    {
        "id": 2751005,
        "name": "Meezenbroek",
        "lon": 5.99051,
        "lat": 50.896801
    },
    {
        "id": 2750978,
        "name": "Melick",
        "lon": 6.01667,
        "lat": 51.159168
    },
    {
        "id": 2750965,
        "name": "Menaam",
        "lon": 5.66124,
        "lat": 53.217972
    },
    {
        "id": 2750953,
        "name": "Mensfort",
        "lon": 5.46667,
        "lat": 51.450001
    },
    {
        "id": 2750947,
        "name": "Meppel",
        "lon": 6.19444,
        "lat": 52.695831
    },
    {
        "id": 2750938,
        "name": "Merkelbeek",
        "lon": 5.94069,
        "lat": 50.953892
    },
    {
        "id": 2750903,
        "name": "Middelbeers",
        "lon": 5.25,
        "lat": 51.466671
    },
    {
        "id": 2750896,
        "name": "Middelburg",
        "lon": 3.61389,
        "lat": 51.5
    },
    {
        "id": 2750888,
        "name": "Middeldijk",
        "lon": 4.51667,
        "lat": 51.849998
    },
    {
        "id": 2750884,
        "name": "Middelharnis",
        "lon": 4.16528,
        "lat": 51.7575
    },
    {
        "id": 2750850,
        "name": "Middenmeer",
        "lon": 4.99861,
        "lat": 52.806671
    },
    {
        "id": 2750821,
        "name": "Mierlo",
        "lon": 5.61944,
        "lat": 51.439999
    },
    {
        "id": 2750815,
        "name": "Mijdrecht",
        "lon": 4.8625,
        "lat": 52.206669
    },
    {
        "id": 2750811,
        "name": "Mijnheerkens",
        "lon": 6,
        "lat": 51.200001
    },
    {
        "id": 2750810,
        "name": "Mijnsheerenland",
        "lon": 4.4875,
        "lat": 51.796669
    },
    {
        "id": 2750790,
        "name": "Minnertsga",
        "lon": 5.59513,
        "lat": 53.251041
    },
    {
        "id": 2750764,
        "name": "Moerkapelle",
        "lon": 4.575,
        "lat": 52.04417
    },
    {
        "id": 2750641,
        "name": "Monnickendam",
        "lon": 5.0375,
        "lat": 52.458328
    },
    {
        "id": 2750630,
        "name": "Monster",
        "lon": 4.175,
        "lat": 52.025829
    },
    {
        "id": 2750626,
        "name": "Montfoort",
        "lon": 4.95278,
        "lat": 52.04583
    },
    {
        "id": 2750624,
        "name": "Montfort",
        "lon": 5.94861,
        "lat": 51.125832
    },
    {
        "id": 2750543,
        "name": "Munnikeveld",
        "lon": 5.07341,
        "lat": 52.5023
    },
    {
        "id": 6929980,
        "name": "Muschberg en Geestenberg",
        "lon": 5.52329,
        "lat": 51.44384
    },
    {
        "id": 7874246,
        "name": "Musiskwartier",
        "lon": 5.91203,
        "lat": 51.982712
    },
    {
        "id": 2750523,
        "name": "Naaldwijk",
        "lon": 4.20972,
        "lat": 51.994171
    },
    {
        "id": 2750521,
        "name": "Naarden",
        "lon": 5.1625,
        "lat": 52.29583
    },
    {
        "id": 2750480,
        "name": "Nederhemert",
        "lon": 5.16817,
        "lat": 51.765179
    },
    {
        "id": 2750479,
        "name": "Nederhemert-Noord",
        "lon": 5.17305,
        "lat": 51.763222
    },
    {
        "id": 2750467,
        "name": "Nederweert",
        "lon": 5.74861,
        "lat": 51.285831
    },
    {
        "id": 2750460,
        "name": "Neede",
        "lon": 6.61389,
        "lat": 52.134171
    },
    {
        "id": 2750450,
        "name": "Neerbosch West",
        "lon": 5.8,
        "lat": 51.833328
    },
    {
        "id": 2750444,
        "name": "Neerijnen",
        "lon": 5.28194,
        "lat": 51.831669
    },
    {
        "id": 2750417,
        "name": "Nes",
        "lon": 5.774,
        "lat": 53.445019
    },
    {
        "id": 2750194,
        "name": "Nieuw-Helvoet",
        "lon": 4.12897,
        "lat": 51.838428
    },
    {
        "id": 2750163,
        "name": "Nieuw-Lekkerland",
        "lon": 4.68653,
        "lat": 51.889149
    },
    {
        "id": 2750158,
        "name": "Nieuw-Loosdrecht",
        "lon": 5.13889,
        "lat": 52.199169
    },
    {
        "id": 2750157,
        "name": "Nieuw-Lotbroek",
        "lon": 5.92798,
        "lat": 50.91283
    },
    {
        "id": 2750117,
        "name": "Nieuw-Vossemeer",
        "lon": 4.21806,
        "lat": 51.59
    },
    {
        "id": 2750325,
        "name": "Nieuwegein",
        "lon": 5.08056,
        "lat": 52.029171
    },
    {
        "id": 2750310,
        "name": "Nieuwehorne",
        "lon": 6.06342,
        "lat": 52.95113
    },
    {
        "id": 2750280,
        "name": "Nieuwenhoorn",
        "lon": 4.14306,
        "lat": 51.854172
    },
    {
        "id": 2750187,
        "name": "Nieuwkoop",
        "lon": 4.77639,
        "lat": 52.150829
    },
    {
        "id": 2750175,
        "name": "Nieuwland",
        "lon": 5.38333,
        "lat": 52.200001
    },
    {
        "id": 2750065,
        "name": "Nijkerk",
        "lon": 5.48611,
        "lat": 52.220001
    },
    {
        "id": 2750053,
        "name": "Nijmegen",
        "lon": 5.85278,
        "lat": 51.842499
    },
    {
        "id": 2749992,
        "name": "Noardburgum",
        "lon": 6.00523,
        "lat": 53.221352
    },
    {
        "id": 2749835,
        "name": "Noord-Scharwoude",
        "lon": 4.81111,
        "lat": 52.69833
    },
    {
        "id": 2749931,
        "name": "Noorderhoogebrug",
        "lon": 6.56806,
        "lat": 53.245831
    },
    {
        "id": 2749875,
        "name": "Noordhorn",
        "lon": 6.39583,
        "lat": 53.261669
    },
    {
        "id": 2749813,
        "name": "Noordwijk aan Zee",
        "lon": 4.43472,
        "lat": 52.243328
    },
    {
        "id": 2749812,
        "name": "Noordwijk-Binnen",
        "lon": 4.44722,
        "lat": 52.235828
    },
    {
        "id": 2749811,
        "name": "Noordwijkerhout",
        "lon": 4.49306,
        "lat": 52.261669
    },
    {
        "id": 2749807,
        "name": "Noordwolde",
        "lon": 6.14153,
        "lat": 52.889641
    },
    {
        "id": 2749780,
        "name": "Nuenen",
        "lon": 5.55278,
        "lat": 51.470001
    },
    {
        "id": 2749756,
        "name": "Nunspeet",
        "lon": 5.78611,
        "lat": 52.379169
    },
    {
        "id": 2749753,
        "name": "Nuth",
        "lon": 5.88611,
        "lat": 50.9175
    },
    {
        "id": 2749745,
        "name": "Obdam",
        "lon": 4.90694,
        "lat": 52.675831
    },
    {
        "id": 2749735,
        "name": "Odiliapeel",
        "lon": 5.70556,
        "lat": 51.64333
    },
    {
        "id": 2749723,
        "name": "Oegstgeest",
        "lon": 4.46944,
        "lat": 52.18
    },
    {
        "id": 2749712,
        "name": "Oene",
        "lon": 6.04861,
        "lat": 52.34417
    },
    {
        "id": 2749708,
        "name": "Oentsjerk",
        "lon": 5.9,
        "lat": 53.25
    },
    {
        "id": 2749703,
        "name": "Oerle",
        "lon": 5.37163,
        "lat": 51.42255
    },
    {
        "id": 2749696,
        "name": "Offenbeek",
        "lon": 6.095,
        "lat": 51.282249
    },
    {
        "id": 2749685,
        "name": "Oirsbeek",
        "lon": 5.90833,
        "lat": 50.950829
    },
    {
        "id": 2749683,
        "name": "Oirschot",
        "lon": 5.31389,
        "lat": 51.505001
    },
    {
        "id": 2749680,
        "name": "Oisterwijk",
        "lon": 5.18889,
        "lat": 51.57917
    },
    {
        "id": 2749668,
        "name": "Oldebroek",
        "lon": 5.90139,
        "lat": 52.445
    },
    {
        "id": 2749660,
        "name": "Oldehove",
        "lon": 6.39583,
        "lat": 53.303329
    },
    {
        "id": 2749653,
        "name": "Oldemarkt",
        "lon": 5.975,
        "lat": 52.820831
    },
    {
        "id": 2749644,
        "name": "Oldenzaal",
        "lon": 6.92917,
        "lat": 52.313332
    },
    {
        "id": 2749626,
        "name": "Olst",
        "lon": 6.10972,
        "lat": 52.337502
    },
    {
        "id": 2749563,
        "name": "Ool",
        "lon": 5.95139,
        "lat": 51.188332
    },
    {
        "id": 6544228,
        "name": "Oost Gelre",
        "lon": 6.54958,
        "lat": 52.00425
    },
    {
        "id": 2749334,
        "name": "Oost-Vlieland",
        "lon": 5.07431,
        "lat": 53.297031
    },
    {
        "id": 2749534,
        "name": "Oostdorp",
        "lon": 4.7,
        "lat": 52.666672
    },
    {
        "id": 2749513,
        "name": "Oostelbeers",
        "lon": 5.26897,
        "lat": 51.47171
    },
    {
        "id": 2749503,
        "name": "Oosterbeek",
        "lon": 5.84583,
        "lat": 51.985828
    },
    {
        "id": 2749451,
        "name": "Oosterhoogebrug",
        "lon": 6.60141,
        "lat": 53.22892
    },
    {
        "id": 2749449,
        "name": "Oosterhout",
        "lon": 5.82639,
        "lat": 51.880001
    },
    {
        "id": 2749423,
        "name": "Oosterpark",
        "lon": 6.5853,
        "lat": 53.223701
    },
    {
        "id": 2749385,
        "name": "Oosterzee",
        "lon": 5.77572,
        "lat": 52.873791
    },
    {
        "id": 2749368,
        "name": "Oosthoekeind",
        "lon": 4.53851,
        "lat": 52.00629
    },
    {
        "id": 6544855,
        "name": "Op den Bosch",
        "lon": 6.02083,
        "lat": 51.583328
    },
    {
        "id": 2749307,
        "name": "Op den Hering",
        "lon": 6.025,
        "lat": 50.982498
    },
    {
        "id": 2749304,
        "name": "Opeinde",
        "lon": 6.05656,
        "lat": 53.134102
    },
    {
        "id": 2749286,
        "name": "Opmeer",
        "lon": 4.94444,
        "lat": 52.706669
    },
    {
        "id": 2749284,
        "name": "Oppenhuizen",
        "lon": 5.69495,
        "lat": 53.01194
    },
    {
        "id": 2749281,
        "name": "Opperdoes",
        "lon": 5.07534,
        "lat": 52.759151
    },
    {
        "id": 6948945,
        "name": "Oranjewijk",
        "lon": 4.65374,
        "lat": 52.049221
    },
    {
        "id": 2749251,
        "name": "Oranjewoud",
        "lon": 5.95038,
        "lat": 52.945789
    },
    {
        "id": 2749234,
        "name": "Oss",
        "lon": 5.51806,
        "lat": 51.764999
    },
    {
        "id": 2749203,
        "name": "Otterlo",
        "lon": 5.77222,
        "lat": 52.099998
    },
    {
        "id": 2749182,
        "name": "Oud-Beijerland",
        "lon": 4.4125,
        "lat": 51.824169
    },
    {
        "id": 2748926,
        "name": "Oud-Loosdrecht",
        "lon": 5.08056,
        "lat": 52.206669
    },
    {
        "id": 2749164,
        "name": "Ouddorp",
        "lon": 3.93472,
        "lat": 51.811668
    },
    {
        "id": 6544222,
        "name": "Oude IJsselstreek",
        "lon": 6.38078,
        "lat": 51.899632
    },
    {
        "id": 2749034,
        "name": "Oude Pekela",
        "lon": 7.00972,
        "lat": 53.104172
    },
    {
        "id": 2748968,
        "name": "Oude Wetering",
        "lon": 4.64444,
        "lat": 52.214169
    },
    {
        "id": 2749136,
        "name": "Oudega",
        "lon": 5.99888,
        "lat": 53.125038
    },
    {
        "id": 2749120,
        "name": "Oudehaske",
        "lon": 5.87095,
        "lat": 52.957088
    },
    {
        "id": 2749061,
        "name": "Oudemirdum",
        "lon": 5.53544,
        "lat": 52.850189
    },
    {
        "id": 2749017,
        "name": "Ouderkerk aan de Amstel",
        "lon": 4.90746,
        "lat": 52.29504
    },
    {
        "id": 2749009,
        "name": "Oudeschild",
        "lon": 4.84722,
        "lat": 53.039169
    },
    {
        "id": 2749007,
        "name": "Oudeschoot",
        "lon": 5.95579,
        "lat": 52.93343
    },
    {
        "id": 2748979,
        "name": "Oudewater",
        "lon": 4.86806,
        "lat": 52.025002
    },
    {
        "id": 2748864,
        "name": "Overberg",
        "lon": 5.49444,
        "lat": 52.040001
    },
    {
        "id": 2748760,
        "name": "Palenstein",
        "lon": 4.50869,
        "lat": 52.05579
    },
    {
        "id": 2748729,
        "name": "Papendrecht",
        "lon": 4.6875,
        "lat": 51.831669
    },
    {
        "id": 2748686,
        "name": "Peelo",
        "lon": 6.58333,
        "lat": 53.01667
    },
    {
        "id": 2748591,
        "name": "Pijnacker",
        "lon": 4.42946,
        "lat": 52.019539
    },
    {
        "id": 2748533,
        "name": "Poeldijk",
        "lon": 4.21944,
        "lat": 52.02417
    },
    {
        "id": 2748530,
        "name": "Poelpolder",
        "lon": 4.55891,
        "lat": 52.249401
    },
    {
        "id": 2748481,
        "name": "Posterholt",
        "lon": 6.03472,
        "lat": 51.123329
    },
    {
        "id": 2756631,
        "name": "Provincie Drenthe",
        "lon": 6.58333,
        "lat": 52.833328
    },
    {
        "id": 3319179,
        "name": "Provincie Flevoland",
        "lon": 5.66667,
        "lat": 52.533329
    },
    {
        "id": 2755812,
        "name": "Provincie Friesland",
        "lon": 5.83333,
        "lat": 53.166672
    },
    {
        "id": 2755634,
        "name": "Provincie Gelderland",
        "lon": 5.83333,
        "lat": 52
    },
    {
        "id": 2755249,
        "name": "Provincie Groningen",
        "lon": 6.75,
        "lat": 53.25
    },
    {
        "id": 2751596,
        "name": "Provincie Limburg",
        "lon": 6,
        "lat": 51.25
    },
    {
        "id": 2749990,
        "name": "Provincie Noord-Brabant",
        "lon": 5,
        "lat": 51.666672
    },
    {
        "id": 2749879,
        "name": "Provincie Noord-Holland",
        "lon": 4.91667,
        "lat": 52.583328
    },
    {
        "id": 2748838,
        "name": "Provincie Overijssel",
        "lon": 6.5,
        "lat": 52.416672
    },
    {
        "id": 2745909,
        "name": "Provincie Utrecht",
        "lon": 5.25,
        "lat": 52
    },
    {
        "id": 2744011,
        "name": "Provincie Zeeland",
        "lon": 3.75,
        "lat": 51.416672
    },
    {
        "id": 2743698,
        "name": "Provincie Zuid-Holland",
        "lon": 4.66667,
        "lat": 52
    },
    {
        "id": 2748413,
        "name": "Purmerend",
        "lon": 4.95972,
        "lat": 52.505001
    },
    {
        "id": 2748403,
        "name": "Puth",
        "lon": 5.87361,
        "lat": 50.95417
    },
    {
        "id": 2748392,
        "name": "Putten",
        "lon": 5.60694,
        "lat": 52.259171
    },
    {
        "id": 2748371,
        "name": "Raalte",
        "lon": 6.275,
        "lat": 52.38583
    },
    {
        "id": 6950811,
        "name": "Randenbroek",
        "lon": 5.4012,
        "lat": 52.148628
    },
    {
        "id": 2748329,
        "name": "Randwijk",
        "lon": 5.70833,
        "lat": 51.953331
    },
    {
        "id": 2747938,
        "name": "Reduzum",
        "lon": 5.78765,
        "lat": 53.117748
    },
    {
        "id": 2748286,
        "name": "Reek",
        "lon": 5.68194,
        "lat": 51.745831
    },
    {
        "id": 2748280,
        "name": "Reeuwijk",
        "lon": 4.725,
        "lat": 52.046669
    },
    {
        "id": 2748240,
        "name": "Renesse",
        "lon": 3.775,
        "lat": 51.732498
    },
    {
        "id": 2748236,
        "name": "Renkum",
        "lon": 5.73333,
        "lat": 51.976669
    },
    {
        "id": 2748208,
        "name": "Reuver",
        "lon": 6.07778,
        "lat": 51.284168
    },
    {
        "id": 2748201,
        "name": "Rheden",
        "lon": 6.02917,
        "lat": 52.005001
    },
    {
        "id": 2748185,
        "name": "Rhenen",
        "lon": 5.56806,
        "lat": 51.959171
    },
    {
        "id": 2748178,
        "name": "Rhoon",
        "lon": 4.42222,
        "lat": 51.857498
    },
    {
        "id": 2748172,
        "name": "Ridderkerk",
        "lon": 4.60278,
        "lat": 51.872501
    },
    {
        "id": 2748104,
        "name": "Rijnsburg",
        "lon": 4.44167,
        "lat": 52.189999
    },
    {
        "id": 2748076,
        "name": "Rijswijk",
        "lon": 4.32501,
        "lat": 52.036339
    },
    {
        "id": 2748051,
        "name": "Rinsumageast",
        "lon": 5.94931,
        "lat": 53.296951
    },